{ "type": "FeatureCollection", "features": [{"type": "Feature", "geometry": { "type": "Point", "coordinates": [-84.293631,34.070904]}, "properties": { "type": 1, "address":"Haynes Bridge Rd / Old Milton Pkwy"}},{"type": "Feature", "geometry": { "type": "Point", "coordinates": [-84.286511,34.04855]}, "properties": { "type": 1, "address":"N Point Pkwy / Haynes Bridge Rd"}},{"type": "Feature", "geometry": { "type": "Point", "coordinates": [-84.208464,33.96112]}, "properties": { "type": 1, "address":"Gmiddlewich Ln NW / Peachtree Industrial Blvd"}},{"type": "Feature", "geometry": { "type": "Point", "coordinates": [-84.146311,33.930797]}, "properties": { "type": 1, "address":"Steven Reynolds Blvd / Beaver Ruin Rd"}},{"type": "Feature", "geometry": { "type": "Point", "coordinates": [-83.990965,34.061863]}, "properties": { "type": 1, "address":"Mall of Georgia Blvd / Buford Dr"}},{"type": "Feature", "geometry": { "type": "Point", "coordinates": [-84.377888,33.583091]}, "properties": { "type": 1, "address":"Upper Riverdale Rd SW / Tara Blvd"}},{"type": "Feature", "geometry": { "type": "Point", "coordinates": [-83.339477,33.925468]}, "properties": { "type": 1, "address":"Barnett Shoals Rd / Greencrest Dr"}},{"type": "Feature", "geometry": { "type": "Point", "coordinates": [-84.550332,33.947289]}, "properties": { "type": 1, "address":"S Marietta Pkwy / Powder Springs St"}},{"type": "Feature", "geometry": { "type": "Point", "coordinates": [-84.536421,33.967886]}, "properties": { "type": 1, "address":"Cobb Pkwy NW / Allgood Rd"}},{"type": "Feature", "geometry": { "type": "Point", "coordinates": [-84.487287,33.902785]}, "properties": { "type": 1, "address":"Windy Hill Rd SE / Cobb Pkwy SE"}},{"type": "Feature", "geometry": { "type": "Point", "coordinates": [-84.294545,34.075628]}, "properties": { "type": 1, "address":"N Main St / Milton Ave"}},{"type": "Feature", "geometry": { "type": "Point", "coordinates": [-83.409662,33.949764]}, "properties": { "type": 1, "address":"W Broad St / Hawthorne Ave"}},{"type": "Feature", "geometry": { "type": "Point", "coordinates": [-84.414282,33.555106]}, "properties": { "type": 1, "address":"Rountree Rd / State Rte 85"}},{"type": "Feature", "geometry": { "type": "Point", "coordinates": [-84.322476,33.561315]}, "properties": { "type": 1, "address":"Mount Zion Blvd / Mount Zion Rd"}},{"type": "Feature", "geometry": { "type": "Point", "coordinates": [-84.303964,33.78487]}, "properties": { "type": 1, "address":"Scott Blvd / Clairmont Ave"}},{"type": "Feature", "geometry": { "type": "Point", "coordinates": [-84.122395,33.941201]}, "properties": { "type": 1, "address":"Club Dr / Pleasant Hill Rd"}}]}