{ "type": "FeatureCollection", "features": [{"type": "Feature", "geometry": { "type": "Point", "coordinates": [-73.661244,40.706329]}, "properties": { "type": 1, "address":"Nassau Blvd / Hempstead Tpke"}},{"type": "Feature", "geometry": { "type": "Point", "coordinates": [-73.643887,40.748232]}, "properties": { "type": 1, "address":"Jericho Tpke / Mineola Blvd"}},{"type": "Feature", "geometry": { "type": "Point", "coordinates": [-73.618014,40.749668]}, "properties": { "type": 1, "address":"Glen Cove Rd / Westbury Ave"}},{"type": "Feature", "geometry": { "type": "Point", "coordinates": [-73.604327,40.651069]}, "properties": { "type": 1, "address":"Merrick Rd / Milburn Ave"}},{"type": "Feature", "geometry": { "type": "Point", "coordinates": [-73.596143,40.688513]}, "properties": { "type": 1, "address":"Nassau Rd / Uniondale Ave"}},{"type": "Feature", "geometry": { "type": "Point", "coordinates": [-73.593576,40.723047]}, "properties": { "type": 1, "address":"Charles Lindbergh Blvd / Earle Ovington Blvd"}},{"type": "Feature", "geometry": { "type": "Point", "coordinates": [-73.592926,40.747164]}, "properties": { "type": 1, "address":"Old Country Rd / Ellison Ave"}},{"type": "Feature", "geometry": { "type": "Point", "coordinates": [-73.576934,40.72299]}, "properties": { "type": 1, "address":"Merrick Ave / Hempstead Tpke"}},{"type": "Feature", "geometry": { "type": "Point", "coordinates": [-73.501228,40.769674]}, "properties": { "type": 1, "address":"Plainview Rd / S Oyster Bay Rd"}},{"type": "Feature", "geometry": { "type": "Point", "coordinates": [-73.481345,40.738395]}, "properties": { "type": 1, "address":"Stewart Ave / Central Ave"}},{"type": "Feature", "geometry": { "type": "Point", "coordinates": [-73.480528,40.82462]}, "properties": { "type": 1, "address":"Woodbury Rd / Southwoods Rd"}},{"type": "Feature", "geometry": { "type": "Point", "coordinates": [-73.456665,40.666455]}, "properties": { "type": 1, "address":"Merrick Rd / Park Blvd"}},{"type": "Feature", "geometry": { "type": "Point", "coordinates": [-73.423185,40.738572]}, "properties": { "type": 1, "address":"Conklin St / Broad Hollow Rd"}},{"type": "Feature", "geometry": { "type": "Point", "coordinates": [-73.399314,40.679927]}, "properties": { "type": 1, "address":"Great Neck Rd / Oak St"}},{"type": "Feature", "geometry": { "type": "Point", "coordinates": [-73.659679,40.640774]}, "properties": { "type": 1, "address":"Atlantic Ave / Ocean Ave"}},{"type": "Feature", "geometry": { "type": "Point", "coordinates": [-73.631405,40.868223]}, "properties": { "type": 1, "address":"Cottage Row / Brewster St"}},{"type": "Feature", "geometry": { "type": "Point", "coordinates": [-73.617094,40.742967]}, "properties": { "type": 1, "address":"Clinton Rd / Old Country Rd"}},{"type": "Feature", "geometry": { "type": "Point", "coordinates": [-73.612387,40.67495]}, "properties": { "type": 1, "address":"Grand Ave / Demott Ave"}},{"type": "Feature", "geometry": { "type": "Point", "coordinates": [-73.592414,40.735962]}, "properties": { "type": 1, "address":"Ave C / Stewart Ave"}},{"type": "Feature", "geometry": { "type": "Point", "coordinates": [-73.522521,40.664367]}, "properties": { "type": 1, "address":"Merrick Rd / Bellmore Ave"}},{"type": "Feature", "geometry": { "type": "Point", "coordinates": [-73.503014,40.782793]}, "properties": { "type": 1, "address":"S Oyster Bay Rd / Woodbury Rd"}},{"type": "Feature", "geometry": { "type": "Point", "coordinates": [-73.46829,40.815976]}, "properties": { "type": 1, "address":"Woodbury Rd / Jericho Tpke"}},{"type": "Feature", "geometry": { "type": "Point", "coordinates": [-73.628202,40.809605]}, "properties": { "type": 1, "address":"Glen Cove Rd / Northern Blvd"}},{"type": "Feature", "geometry": { "type": "Point", "coordinates": [-73.612463,40.650756]}, "properties": { "type": 1, "address":"Merrick Rd / Grand Ave"}},{"type": "Feature", "geometry": { "type": "Point", "coordinates": [-73.59315,40.700585]}, "properties": { "type": 1, "address":"Jerusalem Ave / Uniondale Ave"}},{"type": "Feature", "geometry": { "type": "Point", "coordinates": [-73.540116,40.684073]}, "properties": { "type": 1, "address":"Bellmore Ave / Newbridge Rd"}},{"type": "Feature", "geometry": { "type": "Point", "coordinates": [-73.514458,40.725952]}, "properties": { "type": 1, "address":"Gardiners Ave / Hempstead Tpke"}},{"type": "Feature", "geometry": { "type": "Point", "coordinates": [-73.497627,40.725571]}, "properties": { "type": 1, "address":"Wantagh Ave / Hempstead Tpke"}},{"type": "Feature", "geometry": { "type": "Point", "coordinates": [-73.439424,40.678466]}, "properties": { "type": 1, "address":"Unqua Rd / Sunrise Hwy"}},{"type": "Feature", "geometry": { "type": "Point", "coordinates": [-73.401296,40.684819]}, "properties": { "type": 1, "address":"Great Neck Rd / Dixon Ave"}},{"type": "Feature", "geometry": { "type": "Point", "coordinates": [-73.313452,40.840492]}, "properties": { "type": 1, "address":"Jericho Tpke / Larkfield Rd"}},{"type": "Feature", "geometry": { "type": "Point", "coordinates": [-73.669054,40.797142]}, "properties": { "type": 1, "address":"Northern Blvd / Port Washington Blvd"}},{"type": "Feature", "geometry": { "type": "Point", "coordinates": [-73.655611,40.640775]}, "properties": { "type": 1, "address":"Rockaway Ave / Atlantic Ave"}},{"type": "Feature", "geometry": { "type": "Point", "coordinates": [-73.639725,40.62564]}, "properties": { "type": 1, "address":"Long Beach Rd / Alhambra Dr"}},{"type": "Feature", "geometry": { "type": "Point", "coordinates": [-73.625118,40.772181]}, "properties": { "type": 1, "address":"Glen Cove Rd / I U Willets Rd"}},{"type": "Feature", "geometry": { "type": "Point", "coordinates": [-73.609475,40.656269]}, "properties": { "type": 1, "address":"Grand Ave / Sunrise Hwy"}},{"type": "Feature", "geometry": { "type": "Point", "coordinates": [-73.579648,40.74952]}, "properties": { "type": 1, "address":"Old Country Rd / Salisbury Park Dr"}},{"type": "Feature", "geometry": { "type": "Point", "coordinates": [-73.529217,40.77625]}, "properties": { "type": 1, "address":"Nevada St / Hicksville Jericho Rd"}},{"type": "Feature", "geometry": { "type": "Point", "coordinates": [-73.514231,40.809489]}, "properties": { "type": 1, "address":"Jericho Tpke / Haskett Dr"}},{"type": "Feature", "geometry": { "type": "Point", "coordinates": [-73.650979,40.666721]}, "properties": { "type": 1, "address":"Peninsula Blvd / Lakeview Ave"}},{"type": "Feature", "geometry": { "type": "Point", "coordinates": [-73.641092,40.749185]}, "properties": { "type": 1, "address":"Jericho Tpke / Willis Ave"}},{"type": "Feature", "geometry": { "type": "Point", "coordinates": [-73.594185,40.717597]}, "properties": { "type": 1, "address":"Earle Ovington Blvd / Hempstead Tpke"}},{"type": "Feature", "geometry": { "type": "Point", "coordinates": [-73.558607,40.780647]}, "properties": { "type": 1, "address":"Jericho Tpke / Cantiague Rock Rd"}},{"type": "Feature", "geometry": { "type": "Point", "coordinates": [-73.523803,40.762946]}, "properties": { "type": 1, "address":"W Old Country Rd / Jerusalem Ave"}},{"type": "Feature", "geometry": { "type": "Point", "coordinates": [-73.466973,40.776416]}, "properties": { "type": 1, "address":"Old Country Rd / Manetto Hill Rd"}},{"type": "Feature", "geometry": { "type": "Point", "coordinates": [-73.640667,40.620602]}, "properties": { "type": 1, "address":"Long Beach Rd / Daly Blvd"}},{"type": "Feature", "geometry": { "type": "Point", "coordinates": [-73.629998,40.869584]}, "properties": { "type": 1, "address":"Forest Ave / Dosoris Ln"}},{"type": "Feature", "geometry": { "type": "Point", "coordinates": [-73.614624,40.743195]}, "properties": { "type": 1, "address":"Ring Rd N / Ring Rd E"}},{"type": "Feature", "geometry": { "type": "Point", "coordinates": [-73.605087,40.733155]}, "properties": { "type": 1, "address":"Quentin Roosevelt Blvd / Stewart Ave"}},{"type": "Feature", "geometry": { "type": "Point", "coordinates": [-73.587623,40.747575]}, "properties": { "type": 1, "address":"Old Country Rd / Post Ave"}},{"type": "Feature", "geometry": { "type": "Point", "coordinates": [-73.549212,40.656557]}, "properties": { "type": 1, "address":"Merrick Ave / Merrick Rd"}},{"type": "Feature", "geometry": { "type": "Point", "coordinates": [-73.544211,40.72459]}, "properties": { "type": 1, "address":"Newbridge Rd / Hempstead Tpke"}},{"type": "Feature", "geometry": { "type": "Point", "coordinates": [-73.519705,40.76415]}, "properties": { "type": 1, "address":"E Old Country Rd / Broadway"}},{"type": "Feature", "geometry": { "type": "Point", "coordinates": [-73.510366,40.671855]}, "properties": { "type": 1, "address":"Sunrise Hwy / Wantagh Ave"}},{"type": "Feature", "geometry": { "type": "Point", "coordinates": [-73.428793,40.710728]}, "properties": { "type": 1, "address":"Main St / Broad Hollow Rd"}},{"type": "Feature", "geometry": { "type": "Point", "coordinates": [-73.405954,40.71775]}, "properties": { "type": 1, "address":"New Hwy / Farmingdale Rd"}},{"type": "Feature", "geometry": { "type": "Point", "coordinates": [-73.390212,40.832856]}, "properties": { "type": 1, "address":"Jericho Tpke / Depot Rd"}},{"type": "Feature", "geometry": { "type": "Point", "coordinates": [-73.29465,40.805108]}, "properties": { "type": 1, "address":"Express Dr / Commack Rd"}},{"type": "Feature", "geometry": { "type": "Point", "coordinates": [-73.643004,40.615581]}, "properties": { "type": 1, "address":"Long Beach Rd / Bishop Rd"}},{"type": "Feature", "geometry": { "type": "Point", "coordinates": [-73.61985,40.757248]}, "properties": { "type": 1, "address":"Glen Cove Rd / Jericho Tpke"}},{"type": "Feature", "geometry": { "type": "Point", "coordinates": [-73.583013,40.736895]}, "properties": { "type": 1, "address":"Merrick Ave / Stewart Ave"}},{"type": "Feature", "geometry": { "type": "Point", "coordinates": [-73.505467,40.702194]}, "properties": { "type": 1, "address":"Wantagh Ave / Old Jerusalem Rd"}},{"type": "Feature", "geometry": { "type": "Point", "coordinates": [-73.079155,40.859033]}, "properties": { "type": 1, "address":"Eastwood Blvd / Middle Country Rd"}},{"type": "Feature", "geometry": { "type": "Point", "coordinates": [-73.021413,40.87502]}, "properties": { "type": 1, "address":"Patchogue-Mt Sinai Rd / Old Town Rd"}},{"type": "Feature", "geometry": { "type": "Point", "coordinates": [-73.125134,40.813044]}, "properties": { "type": 1, "address":"Express Dr / Ocean Ave"}},{"type": "Feature", "geometry": { "type": "Point", "coordinates": [-73.112022,40.813706]}, "properties": { "type": 1, "address":"Ronkonkoma Ave / Express Dr"}},{"type": "Feature", "geometry": { "type": "Point", "coordinates": [-72.867548,40.80125]}, "properties": { "type": 1, "address":"Montauk Hwy / William Floyd Pkwy"}},{"type": "Feature", "geometry": { "type": "Point", "coordinates": [-73.082443,40.858404]}, "properties": { "type": 1, "address":"Middle Country Rd / Holbrook Rd"}},{"type": "Feature", "geometry": { "type": "Point", "coordinates": [-73.124922,40.811572]}, "properties": { "type": 1, "address":"Express Dr / Ocean Ave"}},{"type": "Feature", "geometry": { "type": "Point", "coordinates": [-73.090424,40.763678]}, "properties": { "type": 1, "address":"Sunrise Hwy / Johnson Ave"}},{"type": "Feature", "geometry": { "type": "Point", "coordinates": [-71.710506,41.355419]}, "properties": { "type": 1, "address":"Post Rd / Beach Rd"}},{"type": "Feature", "geometry": { "type": "Point", "coordinates": [-71.703314,41.356836]}, "properties": { "type": 1, "address":"Post Rd / E Beach Rd"}},{"type": "Feature", "geometry": { "type": "Point", "coordinates": [-72.803286,40.87212]}, "properties": { "type": 1, "address":"Captain Daniel Roe Hwy / I- 495"}},{"type": "Feature", "geometry": { "type": "Point", "coordinates": [-72.860995,40.802268]}, "properties": { "type": 1, "address":"Garden Pl / Montauk Hwy"}},{"type": "Feature", "geometry": { "type": "Point", "coordinates": [-72.865819,40.796766]}, "properties": { "type": 1, "address":"Surrey Cir / William Floyd Pkwy"}},{"type": "Feature", "geometry": { "type": "Point", "coordinates": [-72.863812,40.786232]}, "properties": { "type": 1, "address":"William Floyd Pkwy / Flintlock Dr"}},{"type": "Feature", "geometry": { "type": "Point", "coordinates": [-72.886054,40.836182]}, "properties": { "type": 1, "address":"Moriches Middle Island Rd / William Floyd Pkwy"}},{"type": "Feature", "geometry": { "type": "Point", "coordinates": [-72.941494,40.945278]}, "properties": { "type": 1, "address":"Hallock Landing Rd / N Country Rd"}},{"type": "Feature", "geometry": { "type": "Point", "coordinates": [-72.996187,40.767113]}, "properties": { "type": 1, "address":"E Main St / Phyllis Dr"}},{"type": "Feature", "geometry": { "type": "Point", "coordinates": [-72.950224,40.797895]}, "properties": { "type": 1, "address":"Station Rd / Woodside Ave"}},{"type": "Feature", "geometry": { "type": "Point", "coordinates": [-72.953902,40.809931]}, "properties": { "type": 1, "address":"Station Rd / Patchogue Yaphank Rd"}},{"type": "Feature", "geometry": { "type": "Point", "coordinates": [-72.997026,40.823074]}, "properties": { "type": 1, "address":"Expressway Dr / Medford Ave"}},{"type": "Feature", "geometry": { "type": "Point", "coordinates": [-72.996138,40.824588]}, "properties": { "type": 1, "address":"Expressway Dr / Medford Ave"}},{"type": "Feature", "geometry": { "type": "Point", "coordinates": [-72.995894,40.871028]}, "properties": { "type": 1, "address":"Middle Country Rd / Mount Sinai Coram Rd"}},{"type": "Feature", "geometry": { "type": "Point", "coordinates": [-72.988007,40.941643]}, "properties": { "type": 1, "address":"State Rte 25A / Miller Place Rd"}},{"type": "Feature", "geometry": { "type": "Point", "coordinates": [-73.013749,40.93703]}, "properties": { "type": 1, "address":"State Rte 25A / Mount Sinai Coram Rd"}},{"type": "Feature", "geometry": { "type": "Point", "coordinates": [-73.023636,40.867827]}, "properties": { "type": 1, "address":"Middle Country Rd / Patchogue-Mt Sinai Rd"}},{"type": "Feature", "geometry": { "type": "Point", "coordinates": [-73.001161,40.868777]}, "properties": { "type": 1, "address":"Middle Country Rd / Port Jefferson-Patchogue Rd"}},{"type": "Feature", "geometry": { "type": "Point", "coordinates": [-73.021202,40.830108]}, "properties": { "type": 1, "address":"N Ocean Ave / Horseblock Rd"}},{"type": "Feature", "geometry": { "type": "Point", "coordinates": [-73.02006,40.822317]}, "properties": { "type": 1, "address":"Expressway Dr / N Ocean Ave"}},{"type": "Feature", "geometry": { "type": "Point", "coordinates": [-73.0072,40.794231]}, "properties": { "type": 1, "address":"Medford Rd / E Woodside Ave"}},{"type": "Feature", "geometry": { "type": "Point", "coordinates": [-73.009021,40.786952]}, "properties": { "type": 1, "address":"Barton Ave / Medford Ave"}},{"type": "Feature", "geometry": { "type": "Point", "coordinates": [-73.008145,40.77887]}, "properties": { "type": 1, "address":"Medford Ave / Sunrise Hwy"}},{"type": "Feature", "geometry": { "type": "Point", "coordinates": [-73.008296,40.780456]}, "properties": { "type": 1, "address":"Sunrise Hwy / Medford Ave"}},{"type": "Feature", "geometry": { "type": "Point", "coordinates": [-73.036934,40.782329]}, "properties": { "type": 1, "address":"Gateway Blvd / Waverly Ave"}},{"type": "Feature", "geometry": { "type": "Point", "coordinates": [-73.031036,40.778166]}, "properties": { "type": 1, "address":"Sunrise Hwy / Waverly Ave"}},{"type": "Feature", "geometry": { "type": "Point", "coordinates": [-73.029021,40.776433]}, "properties": { "type": 1, "address":"Sunrise Hwy / Waverly Ave"}},{"type": "Feature", "geometry": { "type": "Point", "coordinates": [-73.084164,40.781916]}, "properties": { "type": 1, "address":"Lincoln Ave / Veterans Memorial Hwy"}},{"type": "Feature", "geometry": { "type": "Point", "coordinates": [-73.066724,40.774172]}, "properties": { "type": 1, "address":"Broadway Ave / Veterans Memorial Hwy"}},{"type": "Feature", "geometry": { "type": "Point", "coordinates": [-73.071574,40.807008]}, "properties": { "type": 1, "address":"Furrows Rd / Patchogue-Holbrook Rd"}},{"type": "Feature", "geometry": { "type": "Point", "coordinates": [-73.091525,40.830531]}, "properties": { "type": 1, "address":"Portion Rd / Ackerly Ln"}},{"type": "Feature", "geometry": { "type": "Point", "coordinates": [-73.065779,40.860922]}, "properties": { "type": 1, "address":"Middle Country Rd / S Coleman Rd"}},{"type": "Feature", "geometry": { "type": "Point", "coordinates": [-73.0861,40.858316]}, "properties": { "type": 1, "address":"Middle Country Rd / Pleasant Ave"}},{"type": "Feature", "geometry": { "type": "Point", "coordinates": [-73.09439,40.890578]}, "properties": { "type": 1, "address":"Mark Tree Rd / Nesconset Hwy"}},{"type": "Feature", "geometry": { "type": "Point", "coordinates": [-73.072341,40.904506]}, "properties": { "type": 1, "address":"Arrowhead Ln / Nesconset Hwy"}},{"type": "Feature", "geometry": { "type": "Point", "coordinates": [-73.112686,40.860073]}, "properties": { "type": 1, "address":"Middle Country Rd / Hawkins Ave"}},{"type": "Feature", "geometry": { "type": "Point", "coordinates": [-73.173195,40.798818]}, "properties": { "type": 1, "address":"Suffolk Ave / Veterans Memorial Hwy"}},{"type": "Feature", "geometry": { "type": "Point", "coordinates": [-73.159226,40.810089]}, "properties": { "type": 1, "address":"Express Dr / Nichols Rd"}},{"type": "Feature", "geometry": { "type": "Point", "coordinates": [-73.191542,40.855716]}, "properties": { "type": 1, "address":"Miller Pl / E Main St"}},{"type": "Feature", "geometry": { "type": "Point", "coordinates": [-73.198705,40.855275]}, "properties": { "type": 1, "address":"W Main St / New York Ave"}},{"type": "Feature", "geometry": { "type": "Point", "coordinates": [-73.193658,40.808594]}, "properties": { "type": 1, "address":"Express Dr / Motor Pkwy"}},{"type": "Feature", "geometry": { "type": "Point", "coordinates": [-73.217036,40.809412]}, "properties": { "type": 1, "address":"Express Dr / Wheeler Rd"}},{"type": "Feature", "geometry": { "type": "Point", "coordinates": [-73.216922,40.808476]}, "properties": { "type": 1, "address":"Express Dr / Wheeler Rd"}},{"type": "Feature", "geometry": { "type": "Point", "coordinates": [-73.217655,40.80212]}, "properties": { "type": 1, "address":"Joshuas Path / Motor Pkwy"}},{"type": "Feature", "geometry": { "type": "Point", "coordinates": [-73.202007,40.790616]}, "properties": { "type": 1, "address":"Wheeler Rd / W Suffolk Ave"}},{"type": "Feature", "geometry": { "type": "Point", "coordinates": [-73.190846,40.73114]}, "properties": { "type": 1, "address":"Woodland Dr / W Main St"}},{"type": "Feature", "geometry": { "type": "Point", "coordinates": [-73.235427,40.729302]}, "properties": { "type": 1, "address":"Brentwood Rd / Union Blvd"}},{"type": "Feature", "geometry": { "type": "Point", "coordinates": [-73.255289,40.722942]}, "properties": { "type": 1, "address":"5th Ave / Union Blvd"}},{"type": "Feature", "geometry": { "type": "Point", "coordinates": [-73.256739,40.722201]}, "properties": { "type": 1, "address":"Union Blvd / Clinton Ave"}},{"type": "Feature", "geometry": { "type": "Point", "coordinates": [-73.260996,40.730019]}, "properties": { "type": 1, "address":"Howells Rd / 5 Ave"}},{"type": "Feature", "geometry": { "type": "Point", "coordinates": [-73.26094,40.768069]}, "properties": { "type": 1, "address":"5 Ave / 5th Ave"}},{"type": "Feature", "geometry": { "type": "Point", "coordinates": [-73.26004,40.778041]}, "properties": { "type": 1, "address":"Suffolk Ave / Wicks Rd"}},{"type": "Feature", "geometry": { "type": "Point", "coordinates": [-73.246162,40.78121]}, "properties": { "type": 1, "address":"Brentwood Rd / Suffolk Ave"}},{"type": "Feature", "geometry": { "type": "Point", "coordinates": [-73.251072,40.780094]}, "properties": { "type": 1, "address":"Madison Ave / Suffolk Ave"}},{"type": "Feature", "geometry": { "type": "Point", "coordinates": [-73.212654,40.802908]}, "properties": { "type": 1, "address":"Motor Pkwy / Wheeler Rd"}},{"type": "Feature", "geometry": { "type": "Point", "coordinates": [-73.293031,40.842991]}, "properties": { "type": 1, "address":"Commack Rd / Jericho Tpke"}},{"type": "Feature", "geometry": { "type": "Point", "coordinates": [-73.29399,40.839149]}, "properties": { "type": 1, "address":"Commack Rd / Dorothea St"}},{"type": "Feature", "geometry": { "type": "Point", "coordinates": [-73.293126,40.828574]}, "properties": { "type": 1, "address":"Hauppauge Rd / Commack Rd"}},{"type": "Feature", "geometry": { "type": "Point", "coordinates": [-73.279564,40.843999]}, "properties": { "type": 1, "address":"Indian Head Rd / Jericho Tpke"}},{"type": "Feature", "geometry": { "type": "Point", "coordinates": [-73.294718,40.804142]}, "properties": { "type": 1, "address":"Express Dr / Commack Rd"}},{"type": "Feature", "geometry": { "type": "Point", "coordinates": [-73.311939,40.763703]}, "properties": { "type": 1, "address":"Marcus Blvd / Commack Rd"}},{"type": "Feature", "geometry": { "type": "Point", "coordinates": [-73.286725,40.738236]}, "properties": { "type": 1, "address":"Howells Rd / Bay Shore Rd"}},{"type": "Feature", "geometry": { "type": "Point", "coordinates": [-73.343782,40.703607]}, "properties": { "type": 1, "address":"Little East Neck Rd N / Cassata Ct"}},{"type": "Feature", "geometry": { "type": "Point", "coordinates": [-73.342575,40.700339]}, "properties": { "type": 1, "address":"Arnold Ave / Great East Neck Rd"}},{"type": "Feature", "geometry": { "type": "Point", "coordinates": [-73.343971,40.695048]}, "properties": { "type": 1, "address":"Railroad Ave / Great East Neck Rd"}},{"type": "Feature", "geometry": { "type": "Point", "coordinates": [-73.344912,40.69017]}, "properties": { "type": 1, "address":"Great East Neck Rd / Fern Ter"}},{"type": "Feature", "geometry": { "type": "Point", "coordinates": [-73.344535,40.686055]}, "properties": { "type": 1, "address":"Montauk Hwy / Great East Neck Rd"}},{"type": "Feature", "geometry": { "type": "Point", "coordinates": [-73.324786,40.750034]}, "properties": { "type": 1, "address":"Fairview Ave / Deer Park Ave"}},{"type": "Feature", "geometry": { "type": "Point", "coordinates": [-73.330937,40.765544]}, "properties": { "type": 1, "address":"Nicolls Rd / Deer Park Ave"}},{"type": "Feature", "geometry": { "type": "Point", "coordinates": [-73.342202,40.796891]}, "properties": { "type": 1, "address":"Deer Park Ave / I- 495"}},{"type": "Feature", "geometry": { "type": "Point", "coordinates": [-73.332579,40.837818]}, "properties": { "type": 1, "address":"Elwood Rd / Jericho Tpke"}},{"type": "Feature", "geometry": { "type": "Point", "coordinates": [-73.39058,40.856282]}, "properties": { "type": 1, "address":"Park Ave / E Pulaski Rd"}},{"type": "Feature", "geometry": { "type": "Point", "coordinates": [-73.381543,40.714489]}, "properties": { "type": 1, "address":"Straight Path / Farmingdale Rd"}},{"type": "Feature", "geometry": { "type": "Point", "coordinates": [-73.386956,40.704433]}, "properties": { "type": 1, "address":"Heathcote Rd / Straight Path"}},{"type": "Feature", "geometry": { "type": "Point", "coordinates": [-73.392438,40.694289]}, "properties": { "type": 1, "address":"Straight Path / Sunrise Hwy"}},{"type": "Feature", "geometry": { "type": "Point", "coordinates": [-73.393679,40.691821]}, "properties": { "type": 1, "address":"35th St / Straight Path"}},{"type": "Feature", "geometry": { "type": "Point", "coordinates": [-73.395106,40.694607]}, "properties": { "type": 1, "address":"New Hwy / Ralph Ave"}},{"type": "Feature", "geometry": { "type": "Point", "coordinates": [-73.392793,40.669041]}, "properties": { "type": 1, "address":"Great Neck Rd / Merrick Rd"}},{"type": "Feature", "geometry": { "type": "Point", "coordinates": [-73.40506,40.777989]}, "properties": { "type": 1, "address":"Half Hollow Rd / Pinelawn Rd"}},{"type": "Feature", "geometry": { "type": "Point", "coordinates": [-73.409901,40.783014]}, "properties": { "type": 1, "address":"Pinelawn Rd / I- 495"}},{"type": "Feature", "geometry": { "type": "Point", "coordinates": [-73.419349,40.779187]}, "properties": { "type": 1, "address":"I- 495 / Broad Hollow Rd"}},{"type": "Feature", "geometry": { "type": "Point", "coordinates": [-73.411432,40.828424]}, "properties": { "type": 1, "address":"W Jericho Tpke / Walt Whitman Rd"}},{"type": "Feature", "geometry": { "type": "Point", "coordinates": [-73.427085,40.828748]}, "properties": { "type": 1, "address":"Jericho Tpke / Oakwood Rd"}},{"type": "Feature", "geometry": { "type": "Point", "coordinates": [-73.47581,40.666739]}, "properties": { "type": 1, "address":"Merrick Rd / Hicksville Rd"}},{"type": "Feature", "geometry": { "type": "Point", "coordinates": [-73.48466,40.666424]}, "properties": { "type": 1, "address":"Merrick Rd / Washington Ave"}},{"type": "Feature", "geometry": { "type": "Point", "coordinates": [-73.501815,40.810267]}, "properties": { "type": 1, "address":"Jericho Tpke / S Oyster Bay Rd"}},{"type": "Feature", "geometry": { "type": "Point", "coordinates": [-73.499276,40.717537]}, "properties": { "type": 1, "address":"Wantagh Ave / Cotton Ln"}},{"type": "Feature", "geometry": { "type": "Point", "coordinates": [-73.524134,40.669385]}, "properties": { "type": 1, "address":"Bellmore Ave / Sunrise Hwy"}},{"type": "Feature", "geometry": { "type": "Point", "coordinates": [-73.53544,40.743265]}, "properties": { "type": 1, "address":"Flamingo Rd / Newbridge Rd"}},{"type": "Feature", "geometry": { "type": "Point", "coordinates": [-73.542582,40.691156]}, "properties": { "type": 1, "address":"Jerusalem Ave / Newbridge Rd"}},{"type": "Feature", "geometry": { "type": "Point", "coordinates": [-73.551908,40.663012]}, "properties": { "type": 1, "address":"Merrick Ave / Sunrise Hwy"}},{"type": "Feature", "geometry": { "type": "Point", "coordinates": [-73.640417,40.63577]}, "properties": { "type": 1, "address":"W Windsor Pkwy / Long Beach Rd"}},{"type": "Feature", "geometry": { "type": "Point", "coordinates": [-73.607509,40.74447]}, "properties": { "type": 1, "address":"Old Country Rd / E Gate Blvd"}},{"type": "Feature", "geometry": { "type": "Point", "coordinates": [-73.621907,40.760189]}, "properties": { "type": 1, "address":"Hillside Ave / Glen Cove Rd"}},{"type": "Feature", "geometry": { "type": "Point", "coordinates": [-73.673272,40.751495]}, "properties": { "type": 1, "address":"Denton Ave / Hillside Ave"}},{"type": "Feature", "geometry": { "type": "Point", "coordinates": [-73.685346,40.748112]}, "properties": { "type": 1, "address":"New Hyde Park Rd / Hillside Ave"}},{"type": "Feature", "geometry": { "type": "Point", "coordinates": [-73.657156,40.743825]}, "properties": { "type": 1, "address":"Jericho Tpke / Herricks Rd"}},{"type": "Feature", "geometry": { "type": "Point", "coordinates": [-73.651148,40.705035]}, "properties": { "type": 1, "address":"Hempstead Tpke / New York Ave"}},{"type": "Feature", "geometry": { "type": "Point", "coordinates": [-73.655443,40.598923]}, "properties": { "type": 1, "address":"Austin Blvd / Emerson Pl"}}]}