{ "type": "FeatureCollection", "features": [{"type": "Feature", "geometry": { "type": "Point", "coordinates": [-87.170181,30.365746]}, "properties": { "type": 1, "address":"Gulf Breeze Pkwy / Northcliffe Dr"}},{"type": "Feature", "geometry": { "type": "Point", "coordinates": [-87.166411,30.358884]}, "properties": { "type": 1, "address":"Gulf Breeze Pkwy / Daniel Dr"}},{"type": "Feature", "geometry": { "type": "Point", "coordinates": [-87.156952,30.358509]}, "properties": { "type": 1, "address":"Eventide Dr / Gulf Breeze Pkwy"}},{"type": "Feature", "geometry": { "type": "Point", "coordinates": [-87.065458,30.605483]}, "properties": { "type": 1, "address":"Jaimee Leigh Dr / Hwy 90"}},{"type": "Feature", "geometry": { "type": "Point", "coordinates": [-87.059039,30.609182]}, "properties": { "type": 1, "address":"Glover Ln / Hwy 90"}},{"type": "Feature", "geometry": { "type": "Point", "coordinates": [-87.056409,30.623174]}, "properties": { "type": 1, "address":"Dogwood Dr / Hamilton Bridge Rd"}}]}