{ "type": "FeatureCollection", "features": [{"type": "Feature", "geometry": { "type": "Point", "coordinates": [-81.775604,28.552885]}, "properties": { "type": 1, "address":"12th St / State Rd 50"}},{"type": "Feature", "geometry": { "type": "Point", "coordinates": [-81.706959,28.54669]}, "properties": { "type": 1, "address":"Hancock Rd / State Rd 50"}},{"type": "Feature", "geometry": { "type": "Point", "coordinates": [-81.636593,28.547937]}, "properties": { "type": 5, "address":""}},{"type": "Feature", "geometry": { "type": "Point", "coordinates": [-81.634684,28.548861]}, "properties": { "type": 5, "address":""}},{"type": "Feature", "geometry": { "type": "Point", "coordinates": [-81.556548,28.567993]}, "properties": { "type": 5, "address":""}},{"type": "Feature", "geometry": { "type": "Point", "coordinates": [-81.558756,28.573357]}, "properties": { "type": 5, "address":""}},{"type": "Feature", "geometry": { "type": "Point", "coordinates": [-81.545259,28.601594]}, "properties": { "type": 5, "address":""}},{"type": "Feature", "geometry": { "type": "Point", "coordinates": [-81.544388,28.600829]}, "properties": { "type": 5, "address":""}},{"type": "Feature", "geometry": { "type": "Point", "coordinates": [-81.542085,28.551618]}, "properties": { "type": 1, "address":"W Colonial Dr / Maguire Rd"}},{"type": "Feature", "geometry": { "type": "Point", "coordinates": [-81.536826,28.615056]}, "properties": { "type": 5, "address":""}},{"type": "Feature", "geometry": { "type": "Point", "coordinates": [-81.527067,28.682843]}, "properties": { "type": 1, "address":"Western Expy / W Orange Blossom Trl"}},{"type": "Feature", "geometry": { "type": "Point", "coordinates": [-81.517372,28.573696]}, "properties": { "type": 1, "address":"N Clarke Rd / E Silver Star Rd"}},{"type": "Feature", "geometry": { "type": "Point", "coordinates": [-81.513775,28.587202]}, "properties": { "type": 1, "address":"N Clarke Rd / A D Mims Rd"}},{"type": "Feature", "geometry": { "type": "Point", "coordinates": [-81.509449,28.673108]}, "properties": { "type": 1, "address":"S Park Ave / E Main St"}},{"type": "Feature", "geometry": { "type": "Point", "coordinates": [-81.509197,28.705857]}, "properties": { "type": 1, "address":"Rock Springs Rd / Welch Rd"}},{"type": "Feature", "geometry": { "type": "Point", "coordinates": [-81.503754,28.545257]}, "properties": { "type": 5, "address":""}},{"type": "Feature", "geometry": { "type": "Point", "coordinates": [-81.505986,28.546531]}, "properties": { "type": 5, "address":""}},{"type": "Feature", "geometry": { "type": "Point", "coordinates": [-81.495531,28.639237]}, "properties": { "type": 5, "address":""}},{"type": "Feature", "geometry": { "type": "Point", "coordinates": [-81.49214,28.54839]}, "properties": { "type": 5, "address":""}},{"type": "Feature", "geometry": { "type": "Point", "coordinates": [-81.492033,28.547857]}, "properties": { "type": 5, "address":""}},{"type": "Feature", "geometry": { "type": "Point", "coordinates": [-81.495008,28.638827]}, "properties": { "type": 5, "address":""}},{"type": "Feature", "geometry": { "type": "Point", "coordinates": [-81.475816,28.5391]}, "properties": { "type": 1, "address":"Old Winter Garden Rd / S Hiawassee Rd"}},{"type": "Feature", "geometry": { "type": "Point", "coordinates": [-81.47396,28.54885]}, "properties": { "type": 5, "address":""}},{"type": "Feature", "geometry": { "type": "Point", "coordinates": [-81.473885,28.54791]}, "properties": { "type": 5, "address":""}},{"type": "Feature", "geometry": { "type": "Point", "coordinates": [-81.467759,28.577707]}, "properties": { "type": 1, "address":"N Powers Dr / Silver Star Rd"}},{"type": "Feature", "geometry": { "type": "Point", "coordinates": [-81.470053,28.654356]}, "properties": { "type": 1, "address":"Piedmont Wekiwa Rd / S Orange Blossom Trl"}},{"type": "Feature", "geometry": { "type": "Point", "coordinates": [-81.456531,28.55235]}, "properties": { "type": 1, "address":"Kirkman Rd / W Colonial Dr"}},{"type": "Feature", "geometry": { "type": "Point", "coordinates": [-81.451754,28.611305]}, "properties": { "type": 1, "address":"Clarcona Ocoee Rd / N Pine Hills Rd"}},{"type": "Feature", "geometry": { "type": "Point", "coordinates": [-81.440063,28.548333]}, "properties": { "type": 5, "address":""}},{"type": "Feature", "geometry": { "type": "Point", "coordinates": [-81.428958,28.545579]}, "properties": { "type": 5, "address":""}},{"type": "Feature", "geometry": { "type": "Point", "coordinates": [-81.425101,28.54613]}, "properties": { "type": 5, "address":""}},{"type": "Feature", "geometry": { "type": "Point", "coordinates": [-81.412219,28.541268]}, "properties": { "type": 5, "address":""}},{"type": "Feature", "geometry": { "type": "Point", "coordinates": [-81.412302,28.542081]}, "properties": { "type": 5, "address":""}},{"type": "Feature", "geometry": { "type": "Point", "coordinates": [-81.407062,28.603724]}, "properties": { "type": 1, "address":"Edgewater Dr / Lee Rd"}},{"type": "Feature", "geometry": { "type": "Point", "coordinates": [-81.39358,28.572033]}, "properties": { "type": 1, "address":"N Westmoreland Dr / W Smith St"}},{"type": "Feature", "geometry": { "type": "Point", "coordinates": [-81.393453,28.607009]}, "properties": { "type": 1, "address":"Adanson St / Lee Rd"}},{"type": "Feature", "geometry": { "type": "Point", "coordinates": [-81.375932,28.545677]}, "properties": { "type": 1, "address":"N Rosalind Ave / E Robinson St"}},{"type": "Feature", "geometry": { "type": "Point", "coordinates": [-81.376821,28.550944]}, "properties": { "type": 1, "address":"E Concord St / N Magnolia Ave"}},{"type": "Feature", "geometry": { "type": "Point", "coordinates": [-81.376861,28.553132]}, "properties": { "type": 1, "address":"N Magnolia Ave / E Colonial Dr"}},{"type": "Feature", "geometry": { "type": "Point", "coordinates": [-81.364938,28.585898]}, "properties": { "type": 1, "address":"S Orlando Ave / Orange Ave"}},{"type": "Feature", "geometry": { "type": "Point", "coordinates": [-81.365057,28.593091]}, "properties": { "type": 1, "address":"S Orlando Ave / W Fairbanks Ave"}},{"type": "Feature", "geometry": { "type": "Point", "coordinates": [-81.365215,28.60596]}, "properties": { "type": 1, "address":"N Orlando Ave / Lee Rd"}},{"type": "Feature", "geometry": { "type": "Point", "coordinates": [-81.365659,28.634907]}, "properties": { "type": 1, "address":"N Maitland Ave / Marion Way"}},{"type": "Feature", "geometry": { "type": "Point", "coordinates": [-81.365658,28.636489]}, "properties": { "type": 1, "address":"N Maitland Ave / W Maitland Blvd"}},{"type": "Feature", "geometry": { "type": "Point", "coordinates": [-81.327972,28.600476]}, "properties": { "type": 1, "address":"N Lakemont Ave / Aloma Ave"}},{"type": "Feature", "geometry": { "type": "Point", "coordinates": [-81.3244,28.5399]}, "properties": { "type": 5, "address":""}},{"type": "Feature", "geometry": { "type": "Point", "coordinates": [-81.318135,28.539653]}, "properties": { "type": 5, "address":""}},{"type": "Feature", "geometry": { "type": "Point", "coordinates": [-81.310551,28.539037]}, "properties": { "type": 1, "address":"Lake Underhill Rd / S Semoran Blvd"}},{"type": "Feature", "geometry": { "type": "Point", "coordinates": [-81.301011,28.78763]}, "properties": { "type": 5, "address":""}},{"type": "Feature", "geometry": { "type": "Point", "coordinates": [-81.302696,28.788128]}, "properties": { "type": 5, "address":""}},{"type": "Feature", "geometry": { "type": "Point", "coordinates": [-81.286105,28.568275]}, "properties": { "type": 1, "address":"E Colonial Dr / N Goldenrod Rd"}},{"type": "Feature", "geometry": { "type": "Point", "coordinates": [-81.286737,28.771667]}, "properties": { "type": 5, "address":""}},{"type": "Feature", "geometry": { "type": "Point", "coordinates": [-81.276471,28.53919]}, "properties": { "type": 1, "address":"S Chickasaw Trl / Lake Underhill Rd"}},{"type": "Feature", "geometry": { "type": "Point", "coordinates": [-81.275245,28.773677]}, "properties": { "type": 5, "address":""}},{"type": "Feature", "geometry": { "type": "Point", "coordinates": [-81.270976,28.761023]}, "properties": { "type": 5, "address":""}},{"type": "Feature", "geometry": { "type": "Point", "coordinates": [-81.269785,28.761437]}, "properties": { "type": 5, "address":""}},{"type": "Feature", "geometry": { "type": "Point", "coordinates": [-81.265537,28.566408]}, "properties": { "type": 5, "address":""}},{"type": "Feature", "geometry": { "type": "Point", "coordinates": [-81.267779,28.570066]}, "properties": { "type": 5, "address":""}},{"type": "Feature", "geometry": { "type": "Point", "coordinates": [-81.255666,28.587647]}, "properties": { "type": 5, "address":""}},{"type": "Feature", "geometry": { "type": "Point", "coordinates": [-81.259105,28.617417]}, "properties": { "type": 5, "address":""}},{"type": "Feature", "geometry": { "type": "Point", "coordinates": [-81.257908,28.616666]}, "properties": { "type": 5, "address":""}},{"type": "Feature", "geometry": { "type": "Point", "coordinates": [-81.256846,28.741193]}, "properties": { "type": 5, "address":""}},{"type": "Feature", "geometry": { "type": "Point", "coordinates": [-81.257324,28.740817]}, "properties": { "type": 5, "address":""}},{"type": "Feature", "geometry": { "type": "Point", "coordinates": [-81.255312,28.587359]}, "properties": { "type": 5, "address":""}},{"type": "Feature", "geometry": { "type": "Point", "coordinates": [-81.252179,28.599337]}, "properties": { "type": 5, "address":""}},{"type": "Feature", "geometry": { "type": "Point", "coordinates": [-81.249202,28.599837]}, "properties": { "type": 5, "address":""}},{"type": "Feature", "geometry": { "type": "Point", "coordinates": [-81.24421,28.539362]}, "properties": { "type": 1, "address":"S Dean Rd / Lake Underhill Rd"}},{"type": "Feature", "geometry": { "type": "Point", "coordinates": [-81.234541,28.546891]}, "properties": { "type": 5, "address":""}},{"type": "Feature", "geometry": { "type": "Point", "coordinates": [-81.234605,28.547504]}, "properties": { "type": 5, "address":""}},{"type": "Feature", "geometry": { "type": "Point", "coordinates": [-81.233833,28.654897]}, "properties": { "type": 5, "address":""}},{"type": "Feature", "geometry": { "type": "Point", "coordinates": [-81.233189,28.657975]}, "properties": { "type": 5, "address":""}},{"type": "Feature", "geometry": { "type": "Point", "coordinates": [-81.231923,28.654944]}, "properties": { "type": 5, "address":""}},{"type": "Feature", "geometry": { "type": "Point", "coordinates": [-81.227841,28.688072]}, "properties": { "type": 5, "address":""}},{"type": "Feature", "geometry": { "type": "Point", "coordinates": [-81.224561,28.597621]}, "properties": { "type": 1, "address":"University Blvd / Rouse Rd"}},{"type": "Feature", "geometry": { "type": "Point", "coordinates": [-81.226725,28.688256]}, "properties": { "type": 5, "address":""}},{"type": "Feature", "geometry": { "type": "Point", "coordinates": [-81.207067,28.557666]}, "properties": { "type": 1, "address":"N Alafaya Trl / Waterford Lakes Pkwy"}},{"type": "Feature", "geometry": { "type": "Point", "coordinates": [-81.1296,28.560679]}, "properties": { "type": 1, "address":"Chuluota Rd / E Colonial Dr"}},{"type": "Feature", "geometry": { "type": "Point", "coordinates": [-81.631905,28.417367]}, "properties": { "type": 5, "address":""}},{"type": "Feature", "geometry": { "type": "Point", "coordinates": [-81.6325,28.472853]}, "properties": { "type": 5, "address":""}},{"type": "Feature", "geometry": { "type": "Point", "coordinates": [-81.630633,28.417701]}, "properties": { "type": 5, "address":""}},{"type": "Feature", "geometry": { "type": "Point", "coordinates": [-81.63058,28.473079]}, "properties": { "type": 5, "address":""}},{"type": "Feature", "geometry": { "type": "Point", "coordinates": [-81.615463,28.345229]}, "properties": { "type": 5, "address":""}},{"type": "Feature", "geometry": { "type": "Point", "coordinates": [-81.616874,28.344993]}, "properties": { "type": 5, "address":""}},{"type": "Feature", "geometry": { "type": "Point", "coordinates": [-81.617056,28.499079]}, "properties": { "type": 5, "address":""}},{"type": "Feature", "geometry": { "type": "Point", "coordinates": [-81.612421,28.357693]}, "properties": { "type": 5, "address":""}},{"type": "Feature", "geometry": { "type": "Point", "coordinates": [-81.612185,28.359456]}, "properties": { "type": 5, "address":""}},{"type": "Feature", "geometry": { "type": "Point", "coordinates": [-81.611579,28.359362]}, "properties": { "type": 5, "address":""}},{"type": "Feature", "geometry": { "type": "Point", "coordinates": [-81.611273,28.361278]}, "properties": { "type": 5, "address":""}},{"type": "Feature", "geometry": { "type": "Point", "coordinates": [-81.589703,28.348526]}, "properties": { "type": 5, "address":""}},{"type": "Feature", "geometry": { "type": "Point", "coordinates": [-81.582874,28.519]}, "properties": { "type": 5, "address":""}},{"type": "Feature", "geometry": { "type": "Point", "coordinates": [-81.582434,28.520594]}, "properties": { "type": 5, "address":""}},{"type": "Feature", "geometry": { "type": "Point", "coordinates": [-81.527891,28.332772]}, "properties": { "type": 1, "address":"Celebration Ave / W Space Coast Pkwy"}},{"type": "Feature", "geometry": { "type": "Point", "coordinates": [-81.506202,28.385824]}, "properties": { "type": 1, "address":"S Apopka Vineland Rd / Winter Garden Vineland Rd"}},{"type": "Feature", "geometry": { "type": "Point", "coordinates": [-81.503899,28.374078]}, "properties": { "type": 1, "address":"Vineland Ave / S Apopka Vineland Rd"}},{"type": "Feature", "geometry": { "type": "Point", "coordinates": [-81.497162,28.357462]}, "properties": { "type": 1, "address":"World Center Dr / S Apopka Vineland Rd"}},{"type": "Feature", "geometry": { "type": "Point", "coordinates": [-81.489564,28.332929]}, "properties": { "type": 1, "address":"W Space Coast Pkwy / N Poinciana Blvd"}},{"type": "Feature", "geometry": { "type": "Point", "coordinates": [-81.487065,28.346266]}, "properties": { "type": 1, "address":"Polynesian Isles Blvd / Vineland Rd"}},{"type": "Feature", "geometry": { "type": "Point", "coordinates": [-81.483438,28.342093]}, "properties": { "type": 1, "address":"Vineland Rd / W Osceola Pkwy"}},{"type": "Feature", "geometry": { "type": "Point", "coordinates": [-81.477859,28.450011]}, "properties": { "type": 1, "address":"Turkey Lake Rd / W Sand Lake Rd"}},{"type": "Feature", "geometry": { "type": "Point", "coordinates": [-81.47181,28.525937]}, "properties": { "type": 1, "address":"S Hiawassee Rd / Raleigh St"}},{"type": "Feature", "geometry": { "type": "Point", "coordinates": [-81.470849,28.449933]}, "properties": { "type": 1, "address":"International Dr / W Sand Lake Rd"}},{"type": "Feature", "geometry": { "type": "Point", "coordinates": [-81.46402,28.462262]}, "properties": { "type": 1, "address":"Universal Blvd / International Dr"}},{"type": "Feature", "geometry": { "type": "Point", "coordinates": [-81.457483,28.303804]}, "properties": { "type": 1, "address":"Old Vineland Rd / W Space Coast Pkwy"}},{"type": "Feature", "geometry": { "type": "Point", "coordinates": [-81.458676,28.462351]}, "properties": { "type": 1, "address":"International Dr / S Kirkman Rd"}},{"type": "Feature", "geometry": { "type": "Point", "coordinates": [-81.458957,28.493928]}, "properties": { "type": 1, "address":"Conroy Rd / S Kirkman Rd"}},{"type": "Feature", "geometry": { "type": "Point", "coordinates": [-81.448361,28.47578]}, "properties": { "type": 5, "address":""}},{"type": "Feature", "geometry": { "type": "Point", "coordinates": [-81.447176,28.476594]}, "properties": { "type": 5, "address":""}},{"type": "Feature", "geometry": { "type": "Point", "coordinates": [-81.436756,28.304494]}, "properties": { "type": 1, "address":"Dyer Blvd / W Space Coast Pkwy"}},{"type": "Feature", "geometry": { "type": "Point", "coordinates": [-81.435696,28.494752]}, "properties": { "type": 1, "address":"Conroy Rd / Vineland Rd"}},{"type": "Feature", "geometry": { "type": "Point", "coordinates": [-81.424273,28.304472]}, "properties": { "type": 1, "address":"N Thacker Ave / W Vine St"}},{"type": "Feature", "geometry": { "type": "Point", "coordinates": [-81.423975,28.364335]}, "properties": { "type": 1, "address":"Town Center Blvd / S John Young Pkwy"}},{"type": "Feature", "geometry": { "type": "Point", "coordinates": [-81.42429,28.410322]}, "properties": { "type": 1, "address":"Central Florida Pkwy / S John Young Pkwy"}},{"type": "Feature", "geometry": { "type": "Point", "coordinates": [-81.416005,28.30451]}, "properties": { "type": 1, "address":"W Space Coast Pkwy / N John Young Pkwy"}},{"type": "Feature", "geometry": { "type": "Point", "coordinates": [-81.416098,28.326184]}, "properties": { "type": 1, "address":"N John Young Pkwy / W Carroll St"}},{"type": "Feature", "geometry": { "type": "Point", "coordinates": [-81.417483,28.472343]}, "properties": { "type": 1, "address":"W Oak Ridge Rd / John Young Pkwy"}},{"type": "Feature", "geometry": { "type": "Point", "coordinates": [-81.41147,28.435788]}, "properties": { "type": 5, "address":""}},{"type": "Feature", "geometry": { "type": "Point", "coordinates": [-81.409083,28.472419]}, "properties": { "type": 1, "address":"W Oak Ridge Rd / S Texas Ave"}},{"type": "Feature", "geometry": { "type": "Point", "coordinates": [-81.409185,28.486953]}, "properties": { "type": 1, "address":"Americana Blvd / S Texas Ave"}},{"type": "Feature", "geometry": { "type": "Point", "coordinates": [-81.403744,28.337263]}, "properties": { "type": 1, "address":"E Osceola Pkwy / N Orange Blossom Trl"}},{"type": "Feature", "geometry": { "type": "Point", "coordinates": [-81.4047,28.421358]}, "properties": { "type": 1, "address":"W Taft Vineland Rd / S Orange Blossom Trl"}},{"type": "Feature", "geometry": { "type": "Point", "coordinates": [-81.404549,28.435976]}, "properties": { "type": 1, "address":"W Landstreet Rd / S Orange Blossom Trl"}},{"type": "Feature", "geometry": { "type": "Point", "coordinates": [-81.400795,28.429576]}, "properties": { "type": 5, "address":""}},{"type": "Feature", "geometry": { "type": "Point", "coordinates": [-81.400838,28.450247]}, "properties": { "type": 1, "address":"Sand Lake Rd / S Orange Blossom Trl"}},{"type": "Feature", "geometry": { "type": "Point", "coordinates": [-81.396759,28.484222]}, "properties": { "type": 1, "address":"Americana Blvd / S Orange Blossom Trl"}},{"type": "Feature", "geometry": { "type": "Point", "coordinates": [-81.396844,28.494473]}, "properties": { "type": 1, "address":"S Orange Blossom Trl / W Holden Ave"}},{"type": "Feature", "geometry": { "type": "Point", "coordinates": [-81.391311,28.304331]}, "properties": { "type": 1, "address":"Michigan Ave / Space Coast Pkwy"}},{"type": "Feature", "geometry": { "type": "Point", "coordinates": [-81.387856,28.340534]}, "properties": { "type": 1, "address":"E Osceola Pkwy / Michigan Ave"}},{"type": "Feature", "geometry": { "type": "Point", "coordinates": [-81.380239,28.342455]}, "properties": { "type": 5, "address":""}},{"type": "Feature", "geometry": { "type": "Point", "coordinates": [-81.381687,28.342455]}, "properties": { "type": 5, "address":""}},{"type": "Feature", "geometry": { "type": "Point", "coordinates": [-81.381864,28.445194]}, "properties": { "type": 5, "address":""}},{"type": "Feature", "geometry": { "type": "Point", "coordinates": [-81.381655,28.44464]}, "properties": { "type": 5, "address":""}},{"type": "Feature", "geometry": { "type": "Point", "coordinates": [-81.376297,28.512936]}, "properties": { "type": 1, "address":"S Orange Ave / E Michigan St"}},{"type": "Feature", "geometry": { "type": "Point", "coordinates": [-81.348768,28.436907]}, "properties": { "type": 1, "address":"E Landstreet Rd / Boggy Creek Rd"}},{"type": "Feature", "geometry": { "type": "Point", "coordinates": [-81.320071,28.45147]}, "properties": { "type": 5, "address":""}},{"type": "Feature", "geometry": { "type": "Point", "coordinates": [-81.310411,28.523553]}, "properties": { "type": 1, "address":"S Semoran Blvd / Curry Ford Rd"}},{"type": "Feature", "geometry": { "type": "Point", "coordinates": [-81.289884,28.466113]}, "properties": { "type": 1, "address":"Lee Vista Blvd / S Goldenrod Rd"}},{"type": "Feature", "geometry": { "type": "Point", "coordinates": [-81.247593,28.511385]}, "properties": { "type": 5, "address":""}},{"type": "Feature", "geometry": { "type": "Point", "coordinates": [-81.249604,28.512071]}, "properties": { "type": 5, "address":""}},{"type": "Feature", "geometry": { "type": "Point", "coordinates": [-81.23968,28.475806]}, "properties": { "type": 5, "address":""}},{"type": "Feature", "geometry": { "type": "Point", "coordinates": [-81.242384,28.487802]}, "properties": { "type": 5, "address":""}},{"type": "Feature", "geometry": { "type": "Point", "coordinates": [-81.241761,28.487943]}, "properties": { "type": 5, "address":""}},{"type": "Feature", "geometry": { "type": "Point", "coordinates": [-81.238436,28.475967]}, "properties": { "type": 5, "address":""}},{"type": "Feature", "geometry": { "type": "Point", "coordinates": [-81.230657,28.429443]}, "properties": { "type": 5, "address":""}},{"type": "Feature", "geometry": { "type": "Point", "coordinates": [-81.226033,28.426349]}, "properties": { "type": 5, "address":""}},{"type": "Feature", "geometry": { "type": "Point", "coordinates": [-81.209446,28.451566]}, "properties": { "type": 5, "address":""}},{"type": "Feature", "geometry": { "type": "Point", "coordinates": [-81.932237,26.607872]}, "properties": { "type": 5, "address":""}},{"type": "Feature", "geometry": { "type": "Point", "coordinates": [-81.929887,26.561421]}, "properties": { "type": 5, "address":""}},{"type": "Feature", "geometry": { "type": "Point", "coordinates": [-82.587614,27.462422]}, "properties": { "type": 1, "address":"26th St W / Cortez Rd W"}},{"type": "Feature", "geometry": { "type": "Point", "coordinates": [-82.575793,27.495464]}, "properties": { "type": 1, "address":"Manatee Ave W / 15th St W"}},{"type": "Feature", "geometry": { "type": "Point", "coordinates": [-82.562937,27.493913]}, "properties": { "type": 1, "address":"6th Ave W / 1st St W"}},{"type": "Feature", "geometry": { "type": "Point", "coordinates": [-82.530352,27.49614]}, "properties": { "type": 1, "address":"27th St E / Manatee Ave E"}},{"type": "Feature", "geometry": { "type": "Point", "coordinates": [-82.556653,27.381429]}, "properties": { "type": 1, "address":"Ringling Pl / Tamiami Trl"}},{"type": "Feature", "geometry": { "type": "Point", "coordinates": [-82.546657,27.440272]}, "properties": { "type": 1, "address":"15th St E / 57th Ave E"}},{"type": "Feature", "geometry": { "type": "Point", "coordinates": [-82.468958,27.444199]}, "properties": { "type": 1, "address":"Tara Blvd / 53rd Ave E"}},{"type": "Feature", "geometry": { "type": "Point", "coordinates": [-82.530538,27.298855]}, "properties": { "type": 1, "address":"S Tamiami Trl / Bay Rd"}},{"type": "Feature", "geometry": { "type": "Point", "coordinates": [-82.530426,27.352219]}, "properties": { "type": 1, "address":"17th St / N Washington Blvd"}},{"type": "Feature", "geometry": { "type": "Point", "coordinates": [-82.514035,27.33754]}, "properties": { "type": 1, "address":"Fruitville Rd / N Tuttle Ave"}},{"type": "Feature", "geometry": { "type": "Point", "coordinates": [-82.505708,27.337527]}, "properties": { "type": 1, "address":"Fruitville Rd / N Lockwood Ridge Rd"}},{"type": "Feature", "geometry": { "type": "Point", "coordinates": [-82.497421,27.337475]}, "properties": { "type": 1, "address":"Fruitville Rd / N Beneva Rd"}},{"type": "Feature", "geometry": { "type": "Point", "coordinates": [-81.920843,26.558175]}, "properties": { "type": 5, "address":""}},{"type": "Feature", "geometry": { "type": "Point", "coordinates": [-82.59589,27.447777]}, "properties": { "type": 1, "address":"53rd Ave W / 34th St W"}},{"type": "Feature", "geometry": { "type": "Point", "coordinates": [-82.571143,27.497355]}, "properties": { "type": 1, "address":"3rd Ave W / 9th St W"}},{"type": "Feature", "geometry": { "type": "Point", "coordinates": [-82.502825,27.531212]}, "properties": { "type": 1, "address":"60th Ave E / US Hwy 301"}},{"type": "Feature", "geometry": { "type": "Point", "coordinates": [-82.531001,27.338836]}, "properties": { "type": 1, "address":"3rd St / N Washington Blvd"}},{"type": "Feature", "geometry": { "type": "Point", "coordinates": [-82.52974,27.322886]}, "properties": { "type": 1, "address":"S Tamiami Trl / Bahia Vista St"}},{"type": "Feature", "geometry": { "type": "Point", "coordinates": [-82.514053,27.322802]}, "properties": { "type": 1, "address":"S Tuttle Ave / Bahia Vista St"}},{"type": "Feature", "geometry": { "type": "Point", "coordinates": [-82.563031,27.495207]}, "properties": { "type": 1, "address":"Manatee Ave W / 1st St E"}},{"type": "Feature", "geometry": { "type": "Point", "coordinates": [-82.530333,27.302853]}, "properties": { "type": 1, "address":"Siesta Dr / S Tamiami Trl"}},{"type": "Feature", "geometry": { "type": "Point", "coordinates": [-82.554822,27.49399]}, "properties": { "type": 1, "address":"7th Ave E / 9th St E"}},{"type": "Feature", "geometry": { "type": "Point", "coordinates": [-81.057869,28.45217]}, "properties": { "type": 5, "address":""}},{"type": "Feature", "geometry": { "type": "Point", "coordinates": [-81.096619,28.451021]}, "properties": { "type": 5, "address":""}},{"type": "Feature", "geometry": { "type": "Point", "coordinates": [-81.440004,28.154345]}, "properties": { "type": 1, "address":"Southport Rd / Pleasant Hill Rd"}},{"type": "Feature", "geometry": { "type": "Point", "coordinates": [-81.303313,28.181694]}, "properties": { "type": 5, "address":""}},{"type": "Feature", "geometry": { "type": "Point", "coordinates": [-81.318121,28.222646]}, "properties": { "type": 5, "address":""}},{"type": "Feature", "geometry": { "type": "Point", "coordinates": [-81.096619,28.452167]}, "properties": { "type": 5, "address":""}},{"type": "Feature", "geometry": { "type": "Point", "coordinates": [-81.452893,28.146251]}, "properties": { "type": 1, "address":"N Doverplum Ave / Cypress Pkwy"}},{"type": "Feature", "geometry": { "type": "Point", "coordinates": [-81.319001,28.222379]}, "properties": { "type": 5, "address":""}},{"type": "Feature", "geometry": { "type": "Point", "coordinates": [-81.416076,28.291737]}, "properties": { "type": 1, "address":"Emmett St / S John Young Pkwy"}},{"type": "Feature", "geometry": { "type": "Point", "coordinates": [-81.403943,28.295575]}, "properties": { "type": 1, "address":"Neptune Rd / N Main St"}},{"type": "Feature", "geometry": { "type": "Point", "coordinates": [-81.486298,28.255798]}, "properties": { "type": 1, "address":"S Orange Blossom Trl / S Poinciana Blvd"}},{"type": "Feature", "geometry": { "type": "Point", "coordinates": [-81.601033,28.294124]}, "properties": { "type": 5, "address":""}},{"type": "Feature", "geometry": { "type": "Point", "coordinates": [-81.856543,28.560046]}, "properties": { "type": 1, "address":"N Lake Ave / W Broad St"}},{"type": "Feature", "geometry": { "type": "Point", "coordinates": [-81.855741,28.67749]}, "properties": { "type": 5, "address":""}},{"type": "Feature", "geometry": { "type": "Point", "coordinates": [-81.841278,28.669357]}, "properties": { "type": 5, "address":""}},{"type": "Feature", "geometry": { "type": "Point", "coordinates": [-81.933903,28.753602]}, "properties": { "type": 5, "address":""}},{"type": "Feature", "geometry": { "type": "Point", "coordinates": [-81.436339,28.260576]}, "properties": { "type": 1, "address":"Pleasant Hill Rd / S Orange Blossom Trl"}},{"type": "Feature", "geometry": { "type": "Point", "coordinates": [-81.855183,28.675673]}, "properties": { "type": 5, "address":""}},{"type": "Feature", "geometry": { "type": "Point", "coordinates": [-81.942515,28.756845]}, "properties": { "type": 5, "address":""}},{"type": "Feature", "geometry": { "type": "Point", "coordinates": [-81.602325,28.29359]}, "properties": { "type": 5, "address":""}},{"type": "Feature", "geometry": { "type": "Point", "coordinates": [-81.3492,28.28654]}, "properties": { "type": 5, "address":""}},{"type": "Feature", "geometry": { "type": "Point", "coordinates": [-82.493484,28.658842]}, "properties": { "type": 5, "address":""}},{"type": "Feature", "geometry": { "type": "Point", "coordinates": [-82.478861,28.531566]}, "properties": { "type": 5, "address":""}},{"type": "Feature", "geometry": { "type": "Point", "coordinates": [-82.48003,28.532075]}, "properties": { "type": 5, "address":""}},{"type": "Feature", "geometry": { "type": "Point", "coordinates": [-82.403815,28.540293]}, "properties": { "type": 1, "address":"Broad St / Cortez Blvd"}},{"type": "Feature", "geometry": { "type": "Point", "coordinates": [-82.485631,28.436076]}, "properties": { "type": 5, "address":""}},{"type": "Feature", "geometry": { "type": "Point", "coordinates": [-82.799951,27.960922]}, "properties": { "type": 1, "address":"S Ft Harrison Ave / Chestnut St"}},{"type": "Feature", "geometry": { "type": "Point", "coordinates": [-82.73882,27.751963]}, "properties": { "type": 1, "address":"Shore Dr S / Pasadena Ave S"}},{"type": "Feature", "geometry": { "type": "Point", "coordinates": [-82.736066,27.759274]}, "properties": { "type": 1, "address":"Pasadena Ave S / Sunset Dr S"}},{"type": "Feature", "geometry": { "type": "Point", "coordinates": [-82.722378,28.27362]}, "properties": { "type": 1, "address":"Grand Blvd / US Hwy 19"}},{"type": "Feature", "geometry": { "type": "Point", "coordinates": [-82.717282,28.2805]}, "properties": { "type": 1, "address":"Ridge Rd / US Hwy 19"}},{"type": "Feature", "geometry": { "type": "Point", "coordinates": [-82.712275,27.813639]}, "properties": { "type": 1, "address":"58th St N / 46th Ave N"}},{"type": "Feature", "geometry": { "type": "Point", "coordinates": [-82.699693,27.748303]}, "properties": { "type": 1, "address":"Gulfport Blvd S / 49th St S"}},{"type": "Feature", "geometry": { "type": "Point", "coordinates": [-82.67771,28.043496]}, "properties": { "type": 1, "address":"Forest Lakes Blvd / Tampa Rd"}},{"type": "Feature", "geometry": { "type": "Point", "coordinates": [-82.661848,28.038204]}, "properties": { "type": 1, "address":"Tampa Rd / State Hwy 580"}},{"type": "Feature", "geometry": { "type": "Point", "coordinates": [-82.656524,28.036364]}, "properties": { "type": 1, "address":"Tampa Rd / E St Pete Dr"}},{"type": "Feature", "geometry": { "type": "Point", "coordinates": [-82.567275,28.066868]}, "properties": { "type": 5, "address":""}},{"type": "Feature", "geometry": { "type": "Point", "coordinates": [-82.566386,28.067096]}, "properties": { "type": 5, "address":""}},{"type": "Feature", "geometry": { "type": "Point", "coordinates": [-82.565512,28.044373]}, "properties": { "type": 5, "address":""}},{"type": "Feature", "geometry": { "type": "Point", "coordinates": [-82.552536,28.08607]}, "properties": { "type": 5, "address":""}},{"type": "Feature", "geometry": { "type": "Point", "coordinates": [-82.547514,28.130066]}, "properties": { "type": 5, "address":""}},{"type": "Feature", "geometry": { "type": "Point", "coordinates": [-82.549961,28.254143]}, "properties": { "type": 5, "address":""}},{"type": "Feature", "geometry": { "type": "Point", "coordinates": [-82.546004,27.992393]}, "properties": { "type": 5, "address":""}},{"type": "Feature", "geometry": { "type": "Point", "coordinates": [-82.544671,28.031166]}, "properties": { "type": 5, "address":""}},{"type": "Feature", "geometry": { "type": "Point", "coordinates": [-82.542729,28.099873]}, "properties": { "type": 5, "address":""}},{"type": "Feature", "geometry": { "type": "Point", "coordinates": [-82.542032,28.188238]}, "properties": { "type": 5, "address":""}},{"type": "Feature", "geometry": { "type": "Point", "coordinates": [-82.526823,27.893426]}, "properties": { "type": 1, "address":"S West Shore Blvd / W Gandy Blvd"}},{"type": "Feature", "geometry": { "type": "Point", "coordinates": [-82.524246,27.94484]}, "properties": { "type": 1, "address":"W Kennedy Blvd / N West Shore Blvd"}},{"type": "Feature", "geometry": { "type": "Point", "coordinates": [-82.506318,27.893705]}, "properties": { "type": 1, "address":"W Gandy Blvd / S Dale Mabry Hwy"}},{"type": "Feature", "geometry": { "type": "Point", "coordinates": [-82.505504,27.966795]}, "properties": { "type": 1, "address":"N Dale Mabry Hwy / W Columbus Dr"}},{"type": "Feature", "geometry": { "type": "Point", "coordinates": [-82.482983,27.944748]}, "properties": { "type": 1, "address":"W Kennedy Blvd / S Howard Ave"}},{"type": "Feature", "geometry": { "type": "Point", "coordinates": [-82.484259,28.025347]}, "properties": { "type": 1, "address":"N Armenia Ave / W Waters Ave"}},{"type": "Feature", "geometry": { "type": "Point", "coordinates": [-82.459453,27.996156]}, "properties": { "type": 1, "address":"N Florida Ave / W Hillsborough Ave"}},{"type": "Feature", "geometry": { "type": "Point", "coordinates": [-82.420779,28.552472]}, "properties": { "type": 1, "address":"Cortez Blvd / W Jefferson St"}},{"type": "Feature", "geometry": { "type": "Point", "coordinates": [-82.407253,28.534048]}, "properties": { "type": 1, "address":"Broad St / Wiscon Rd"}},{"type": "Feature", "geometry": { "type": "Point", "coordinates": [-82.400771,28.545577]}, "properties": { "type": 1, "address":"Chatman Blvd / Broad St"}},{"type": "Feature", "geometry": { "type": "Point", "coordinates": [-82.484493,28.435737]}, "properties": { "type": 5, "address":""}},{"type": "Feature", "geometry": { "type": "Point", "coordinates": [-82.528503,28.3939]}, "properties": { "type": 5, "address":""}},{"type": "Feature", "geometry": { "type": "Point", "coordinates": [-82.746126,27.960524]}, "properties": { "type": 1, "address":"Belcher Rd / Gulf To Bay Blvd"}},{"type": "Feature", "geometry": { "type": "Point", "coordinates": [-82.745267,27.748203]}, "properties": { "type": 1, "address":"Corey Cswy / Sailboat Key Blvd S"}},{"type": "Feature", "geometry": { "type": "Point", "coordinates": [-82.734923,27.76257]}, "properties": { "type": 1, "address":"Park St S / Pasadena Ave S"}},{"type": "Feature", "geometry": { "type": "Point", "coordinates": [-82.728567,27.813629]}, "properties": { "type": 1, "address":"46th Ave N / 66th St"}},{"type": "Feature", "geometry": { "type": "Point", "coordinates": [-82.727674,28.23887]}, "properties": { "type": 1, "address":"US Hwy 19 / Gulf Dr"}},{"type": "Feature", "geometry": { "type": "Point", "coordinates": [-82.720425,27.821]}, "properties": { "type": 1, "address":"62nd St N / 54th Ave N"}},{"type": "Feature", "geometry": { "type": "Point", "coordinates": [-82.712043,27.748259]}, "properties": { "type": 1, "address":"58th St S / Gulfport Blvd S"}},{"type": "Feature", "geometry": { "type": "Point", "coordinates": [-82.71226,27.821015]}, "properties": { "type": 1, "address":"54th Ave N / 58th St N"}},{"type": "Feature", "geometry": { "type": "Point", "coordinates": [-82.699733,27.755571]}, "properties": { "type": 1, "address":"49th St S / 15th Ave S"}},{"type": "Feature", "geometry": { "type": "Point", "coordinates": [-82.700402,28.048978]}, "properties": { "type": 1, "address":"Curlew Rd / Gull Aire Blvd"}},{"type": "Feature", "geometry": { "type": "Point", "coordinates": [-82.564364,28.045679]}, "properties": { "type": 5, "address":""}},{"type": "Feature", "geometry": { "type": "Point", "coordinates": [-82.54907,28.130491]}, "properties": { "type": 5, "address":""}},{"type": "Feature", "geometry": { "type": "Point", "coordinates": [-82.545553,27.993533]}, "properties": { "type": 5, "address":""}},{"type": "Feature", "geometry": { "type": "Point", "coordinates": [-82.544017,28.031185]}, "properties": { "type": 5, "address":""}},{"type": "Feature", "geometry": { "type": "Point", "coordinates": [-82.542075,28.098641]}, "properties": { "type": 5, "address":""}},{"type": "Feature", "geometry": { "type": "Point", "coordinates": [-82.543588,28.187709]}, "properties": { "type": 5, "address":""}},{"type": "Feature", "geometry": { "type": "Point", "coordinates": [-82.537599,28.025606]}, "properties": { "type": 1, "address":"W Waters Ave / Anderson Rd"}},{"type": "Feature", "geometry": { "type": "Point", "coordinates": [-82.518431,27.893569]}, "properties": { "type": 1, "address":"S Manhattan Ave / W Gandy Blvd"}},{"type": "Feature", "geometry": { "type": "Point", "coordinates": [-82.505681,27.944807]}, "properties": { "type": 1, "address":"S Dale Mabry Hwy / W Kennedy Blvd"}},{"type": "Feature", "geometry": { "type": "Point", "coordinates": [-82.504983,28.025432]}, "properties": { "type": 1, "address":"W Waters Ave / N Dale Mabry Hwy"}},{"type": "Feature", "geometry": { "type": "Point", "coordinates": [-82.500949,27.996073]}, "properties": { "type": 1, "address":"N Himes Ave / W Hillsborough Ave"}},{"type": "Feature", "geometry": { "type": "Point", "coordinates": [-82.488484,28.010573]}, "properties": { "type": 1, "address":"N Habana Ave / W Sligh Ave"}},{"type": "Feature", "geometry": { "type": "Point", "coordinates": [-82.484388,27.996183]}, "properties": { "type": 1, "address":"W Hillsborough Ave / N Armenia Ave"}},{"type": "Feature", "geometry": { "type": "Point", "coordinates": [-82.459676,27.947091]}, "properties": { "type": 1, "address":"W Kennedy Blvd / N Ashley Dr"}},{"type": "Feature", "geometry": { "type": "Point", "coordinates": [-82.459512,28.025364]}, "properties": { "type": 1, "address":"N Florida Ave / E Waters Ave"}},{"type": "Feature", "geometry": { "type": "Point", "coordinates": [-82.451123,27.996072]}, "properties": { "type": 1, "address":"E Hillsborough Ave / N Nebraska Ave"}},{"type": "Feature", "geometry": { "type": "Point", "coordinates": [-82.451121,28.054574]}, "properties": { "type": 1, "address":"E Fowler Ave / N Nebraska Ave"}},{"type": "Feature", "geometry": { "type": "Point", "coordinates": [-82.436675,27.953267]}, "properties": { "type": 5, "address":""}},{"type": "Feature", "geometry": { "type": "Point", "coordinates": [-82.434739,27.996069]}, "properties": { "type": 1, "address":"E Hillsborough Ave / N 22nd St"}},{"type": "Feature", "geometry": { "type": "Point", "coordinates": [-82.426119,28.054462]}, "properties": { "type": 1, "address":"E Fowler Ave / N 30th St"}},{"type": "Feature", "geometry": { "type": "Point", "coordinates": [-82.425914,27.957617]}, "properties": { "type": 5, "address":""}},{"type": "Feature", "geometry": { "type": "Point", "coordinates": [-82.426071,28.069192]}, "properties": { "type": 1, "address":"E Fletcher Ave / N 30th St"}},{"type": "Feature", "geometry": { "type": "Point", "coordinates": [-82.403218,27.949564]}, "properties": { "type": 5, "address":""}},{"type": "Feature", "geometry": { "type": "Point", "coordinates": [-82.404247,27.950405]}, "properties": { "type": 5, "address":""}},{"type": "Feature", "geometry": { "type": "Point", "coordinates": [-82.38208,27.950328]}, "properties": { "type": 5, "address":""}},{"type": "Feature", "geometry": { "type": "Point", "coordinates": [-82.382123,27.950074]}, "properties": { "type": 5, "address":""}},{"type": "Feature", "geometry": { "type": "Point", "coordinates": [-82.364776,27.947872]}, "properties": { "type": 5, "address":""}},{"type": "Feature", "geometry": { "type": "Point", "coordinates": [-82.323886,27.939396]}, "properties": { "type": 1, "address":"Grand Regency Blvd / W Brandon Blvd"}},{"type": "Feature", "geometry": { "type": "Point", "coordinates": [-82.269235,27.893667]}, "properties": { "type": 1, "address":"Bell Shoals Rd / Bloomingdale Ave"}},{"type": "Feature", "geometry": { "type": "Point", "coordinates": [-81.975436,27.99687]}, "properties": { "type": 1, "address":"Harden Blvd / N Parkway Frontage Rd"}},{"type": "Feature", "geometry": { "type": "Point", "coordinates": [-81.973616,28.018616]}, "properties": { "type": 1, "address":"Harden Blvd / W Beacon Rd"}},{"type": "Feature", "geometry": { "type": "Point", "coordinates": [-81.965507,28.080608]}, "properties": { "type": 1, "address":"Bartow Rd / Griffin Rd"}},{"type": "Feature", "geometry": { "type": "Point", "coordinates": [-81.961354,28.054933]}, "properties": { "type": 1, "address":"W Memorial Blvd / Martin L King Jr Ave"}},{"type": "Feature", "geometry": { "type": "Point", "coordinates": [-81.957083,28.018568]}, "properties": { "type": 1, "address":"W Beacon Rd / E Beacon Rd"}},{"type": "Feature", "geometry": { "type": "Point", "coordinates": [-81.957435,28.054962]}, "properties": { "type": 1, "address":"W Memorial Blvd / N Florida Ave"}},{"type": "Feature", "geometry": { "type": "Point", "coordinates": [-81.954242,28.054993]}, "properties": { "type": 1, "address":"N Massachusetts Ave / E Memorial Blvd"}},{"type": "Feature", "geometry": { "type": "Point", "coordinates": [-81.947515,28.011299]}, "properties": { "type": 1, "address":"Cleveland Heights Blvd / E Edgewood Dr"}},{"type": "Feature", "geometry": { "type": "Point", "coordinates": [-81.946827,28.110173]}, "properties": { "type": 1, "address":"N Socrum Loop Rd / Old Combee Rd"}},{"type": "Feature", "geometry": { "type": "Point", "coordinates": [-81.946499,28.113824]}, "properties": { "type": 1, "address":"N Socrum Loop Rd / Walt Loop Rd"}},{"type": "Feature", "geometry": { "type": "Point", "coordinates": [-81.927083,28.025942]}, "properties": { "type": 1, "address":"Bartow Rd / Crystal Lake Dr"}},{"type": "Feature", "geometry": { "type": "Point", "coordinates": [-81.639714,28.12132]}, "properties": { "type": 1, "address":"US Hwy 27 / Main St"}},{"type": "Feature", "geometry": { "type": "Point", "coordinates": [-81.639759,28.157723]}, "properties": { "type": 1, "address":"US Hwy 27 / Co Rd 547"}},{"type": "Feature", "geometry": { "type": "Point", "coordinates": [-81.637965,28.137897]}, "properties": { "type": 1, "address":"US Hwy 27 / Bates Rd"}},{"type": "Feature", "geometry": { "type": "Point", "coordinates": [-82.406499,28.541026]}, "properties": { "type": 1, "address":"Cortez Blvd / Buck Hope Rd"}},{"type": "Feature", "geometry": { "type": "Point", "coordinates": [-82.402668,28.542368]}, "properties": { "type": 1, "address":"S Broad St & SR-45"}},{"type": "Feature", "geometry": { "type": "Point", "coordinates": [-82.459469,28.032969]}, "properties": { "type": 1, "address":"N Florida Ave / E Busch Blvd"}},{"type": "Feature", "geometry": { "type": "Point", "coordinates": [-82.451271,28.032872]}, "properties": { "type": 1, "address":"N Nebraska Ave / E Busch Blvd"}},{"type": "Feature", "geometry": { "type": "Point", "coordinates": [-81.63972,28.117584]}, "properties": { "type": 1, "address":"W Commerce Ave / US Hwy 27"}},{"type": "Feature", "geometry": { "type": "Point", "coordinates": [-81.639717,28.124996]}, "properties": { "type": 1, "address":"US Hwy 27 / Glen Este Blvd"}},{"type": "Feature", "geometry": { "type": "Point", "coordinates": [-81.638042,28.106512]}, "properties": { "type": 1, "address":"Old Haines City Lake Alfred Hwy / US Hwy 17"}},{"type": "Feature", "geometry": { "type": "Point", "coordinates": [-81.639842,28.179401]}, "properties": { "type": 1, "address":"Massee Rd / Holly Hill Rd"}},{"type": "Feature", "geometry": { "type": "Point", "coordinates": [-81.425084,28.396952]}, "properties": { "type": 1, "address":"Lakeshore Reserve Dr / S John Young Pkwy"}},{"type": "Feature", "geometry": { "type": "Point", "coordinates": [-81.404706,28.428226]}, "properties": { "type": 1, "address":"S Orange Blossom Trl / Consulate Dr"}},{"type": "Feature", "geometry": { "type": "Point", "coordinates": [-81.330802,28.480528]}, "properties": { "type": 1, "address":"Hoffner Ave / S Conway Rd"}},{"type": "Feature", "geometry": { "type": "Point", "coordinates": [-81.371943,28.480157]}, "properties": { "type": 1, "address":"W Mary Jess Rd / S Orange Ave"}},{"type": "Feature", "geometry": { "type": "Point", "coordinates": [-81.474897,28.462398]}, "properties": { "type": 1, "address":"Turkey Lake Rd / Wallace Dr"}},{"type": "Feature", "geometry": { "type": "Point", "coordinates": [-81.490849,28.493658]}, "properties": { "type": 1, "address":"Conroy Rd / Dr Phillips Blvd"}},{"type": "Feature", "geometry": { "type": "Point", "coordinates": [-81.374926,28.494689]}, "properties": { "type": 1, "address":"S Orange Ave / Holden Ave"}},{"type": "Feature", "geometry": { "type": "Point", "coordinates": [-81.756359,28.551254]}, "properties": { "type": 1, "address":"State Rd 50 / East Ave"}},{"type": "Feature", "geometry": { "type": "Point", "coordinates": [-81.763301,28.551281]}, "properties": { "type": 1, "address":"State Rd 50 / 5th St"}},{"type": "Feature", "geometry": { "type": "Point", "coordinates": [-81.476079,28.577599]}, "properties": { "type": 1, "address":"N Hiawassee Rd / Silver Star Rd"}},{"type": "Feature", "geometry": { "type": "Point", "coordinates": [-81.335626,28.624879]}, "properties": { "type": 1, "address":"Temple Dr / Howell Branch Rd"}},{"type": "Feature", "geometry": { "type": "Point", "coordinates": [-81.36352,28.627505]}, "properties": { "type": 1, "address":"E Horatio Ave / S Orlando Ave"}},{"type": "Feature", "geometry": { "type": "Point", "coordinates": [-81.471872,28.648223]}, "properties": { "type": 1, "address":"Apopka Blvd / Piedmont Wekiwa Rd"}},{"type": "Feature", "geometry": { "type": "Point", "coordinates": [-81.504139,28.6731]}, "properties": { "type": 1, "address":"E Main St / Edgewood Dr"}},{"type": "Feature", "geometry": { "type": "Point", "coordinates": [-81.536052,28.686303]}, "properties": { "type": 1, "address":"Errol Pkwy / W Orange Blossom Trl"}}]}