{ "type": "FeatureCollection", "features": [{"type": "Feature", "geometry": { "type": "Point", "coordinates": [-90.060074,35.05529]}, "properties": { "type": 1, "address":"S 3rd St / E Mitchell Rd"}},{"type": "Feature", "geometry": { "type": "Point", "coordinates": [-89.041318,36.41325]}, "properties": { "type": 1, "address":"S Miles Ave / E Reelfoot Ave"}},{"type": "Feature", "geometry": { "type": "Point", "coordinates": [-88.828266,35.654684]}, "properties": { "type": 1, "address":"Old Hickory Blvd E / N Highland Ave"}},{"type": "Feature", "geometry": { "type": "Point", "coordinates": [-88.829258,35.667492]}, "properties": { "type": 1, "address":"Carriage House Dr / N Highland Ave"}},{"type": "Feature", "geometry": { "type": "Point", "coordinates": [-89.067441,36.427015]}, "properties": { "type": 1, "address":"W Main St / Jere B Ford Memorial Hwy"}},{"type": "Feature", "geometry": { "type": "Point", "coordinates": [-88.51717,36.123849]}, "properties": { "type": 1, "address":"Cherrywood Ave / Highland Dr"}},{"type": "Feature", "geometry": { "type": "Point", "coordinates": [-88.502947,36.133218]}, "properties": { "type": 4, "address":"Highland Dr"}},{"type": "Feature", "geometry": { "type": "Point", "coordinates": [-88.579932,35.158239]}, "properties": { "type": 1, "address":"Mulberry Ave / US Hwy 64"}},{"type": "Feature", "geometry": { "type": "Point", "coordinates": [-89.05138,36.413984]}, "properties": { "type": 1, "address":"E Reelfoot Ave / S Home St"}},{"type": "Feature", "geometry": { "type": "Point", "coordinates": [-88.510112,36.128509]}, "properties": { "type": 1, "address":"Cedar St / Highland Dr"}},{"type": "Feature", "geometry": { "type": "Point", "coordinates": [-88.855518,35.6813]}, "properties": { "type": 1, "address":"Channing Way / Hwy 45 Byp"}},{"type": "Feature", "geometry": { "type": "Point", "coordinates": [-89.989792,35.021041]}, "properties": { "type": 1, "address":"E Shelby Dr / Airways Blvd"}},{"type": "Feature", "geometry": { "type": "Point", "coordinates": [-89.843787,35.049507]}, "properties": { "type": 1, "address":"Winchester Rd / Kirby Pkwy"}},{"type": "Feature", "geometry": { "type": "Point", "coordinates": [-89.831234,35.020387]}, "properties": { "type": 1, "address":"E Shelby Dr / Riverdale Rd"}},{"type": "Feature", "geometry": { "type": "Point", "coordinates": [-89.830011,35.049166]}, "properties": { "type": 1, "address":"Winchester Rd / Riverdale Rd"}},{"type": "Feature", "geometry": { "type": "Point", "coordinates": [-89.945234,35.127782]}, "properties": { "type": 1, "address":"Poplar Ave / S Highland St"}},{"type": "Feature", "geometry": { "type": "Point", "coordinates": [-89.898198,35.020549]}, "properties": { "type": 1, "address":"E Shelby Dr / Lamar Ave"}},{"type": "Feature", "geometry": { "type": "Point", "coordinates": [-89.886208,35.050538]}, "properties": { "type": 1, "address":"Winchester Rd / S Mendenhall Rd"}},{"type": "Feature", "geometry": { "type": "Point", "coordinates": [-89.8684,35.172018]}, "properties": { "type": 1, "address":"Sycamore View Rd / Summer Ave"}},{"type": "Feature", "geometry": { "type": "Point", "coordinates": [-89.859383,35.101871]}, "properties": { "type": 1, "address":"Poplar Ave / S Shady Grove Rd"}},{"type": "Feature", "geometry": { "type": "Point", "coordinates": [-89.823369,35.048905]}, "properties": { "type": 1, "address":"Winchester Rd / S Germantown Rd"}},{"type": "Feature", "geometry": { "type": "Point", "coordinates": [-89.795518,35.048311]}, "properties": { "type": 1, "address":"Hacks Cross Rd / Winchester Rd"}},{"type": "Feature", "geometry": { "type": "Point", "coordinates": [-89.792979,35.173299]}, "properties": { "type": 1, "address":"Dexter Rd / N Germantown Pkwy"}},{"type": "Feature", "geometry": { "type": "Point", "coordinates": [-89.908605,35.221734]}, "properties": { "type": 1, "address":"Yale Rd / Austin Peay Hwy"}},{"type": "Feature", "geometry": { "type": "Point", "coordinates": [-89.900486,35.350347]}, "properties": { "type": 1, "address":"Cuba Millington Rd / US Hwy 51"}},{"type": "Feature", "geometry": { "type": "Point", "coordinates": [-89.895403,35.106603]}, "properties": { "type": 1, "address":"Mount Moriah Rd / Park Ave"}},{"type": "Feature", "geometry": { "type": "Point", "coordinates": [-89.89458,35.206946]}, "properties": { "type": 1, "address":"Covington Pike / Stage Rd"}},{"type": "Feature", "geometry": { "type": "Point", "coordinates": [-89.795569,35.142264]}, "properties": { "type": 1, "address":"Trinity Rd / N Germantown Pkwy"}},{"type": "Feature", "geometry": { "type": "Point", "coordinates": [-89.792022,35.204508]}, "properties": { "type": 1, "address":"N Germantown Pkwy / Stage Rd"}},{"type": "Feature", "geometry": { "type": "Point", "coordinates": [-89.951193,35.076569]}, "properties": { "type": 1, "address":"Lamar Ave / American Way"}},{"type": "Feature", "geometry": { "type": "Point", "coordinates": [-89.936866,35.020641]}, "properties": { "type": 1, "address":"Getwell Rd / E Shelby Dr"}},{"type": "Feature", "geometry": { "type": "Point", "coordinates": [-89.910016,35.341409]}, "properties": { "type": 1, "address":"US Hwy 51 / Navy Rd"}},{"type": "Feature", "geometry": { "type": "Point", "coordinates": [-89.905758,35.062383]}, "properties": { "type": 1, "address":"Knight Arnold Rd / S Perkins Rd"}},{"type": "Feature", "geometry": { "type": "Point", "coordinates": [-89.866365,35.050064]}, "properties": { "type": 1, "address":"Winchester Rd / Hickory Hill Rd"}},{"type": "Feature", "geometry": { "type": "Point", "coordinates": [-89.802082,35.113055]}, "properties": { "type": 1, "address":"S Germantown Rd / Wolf River Blvd"}},{"type": "Feature", "geometry": { "type": "Point", "coordinates": [-89.7953,35.158158]}, "properties": { "type": 1, "address":"Cordova Rd / N Germantown Pkwy"}},{"type": "Feature", "geometry": { "type": "Point", "coordinates": [-89.926054,35.051607]}, "properties": { "type": 1, "address":"Winchester Rd / Lamar Ave"}},{"type": "Feature", "geometry": { "type": "Point", "coordinates": [-89.915626,35.33627]}, "properties": { "type": 1, "address":"Babe Howard Ave / US Hwy 51"}},{"type": "Feature", "geometry": { "type": "Point", "coordinates": [-89.906136,35.345055]}, "properties": { "type": 1, "address":"US Hwy 51 / Shelby Rd"}},{"type": "Feature", "geometry": { "type": "Point", "coordinates": [-89.989777,35.053273]}, "properties": { "type": 1, "address":"Winchester Rd / Holly Cir"}},{"type": "Feature", "geometry": { "type": "Point", "coordinates": [-88.572087,35.140943]}, "properties": { "type": 1, "address":"Mulberry Ave / State Hwy 142"}},{"type": "Feature", "geometry": { "type": "Point", "coordinates": [-89.069194,36.415594]}, "properties": { "type": 1, "address":"W Reelfoot Ave / Jere B Ford Memorial Hwy"}},{"type": "Feature", "geometry": { "type": "Point", "coordinates": [-89.812966,35.050431]}, "properties": { "type": 1, "address":"Winchester Rd / S Germantown Rd"}}]}