{ "type": "FeatureCollection", "features": [{"type": "Feature", "geometry": { "type": "Point", "coordinates": [-82.493484,28.658842]}, "properties": { "type": 5, "address":""}},{"type": "Feature", "geometry": { "type": "Point", "coordinates": [-82.478861,28.531566]}, "properties": { "type": 5, "address":""}},{"type": "Feature", "geometry": { "type": "Point", "coordinates": [-82.48003,28.532075]}, "properties": { "type": 5, "address":""}},{"type": "Feature", "geometry": { "type": "Point", "coordinates": [-82.485631,28.436076]}, "properties": { "type": 5, "address":""}},{"type": "Feature", "geometry": { "type": "Point", "coordinates": [-82.799951,27.960922]}, "properties": { "type": 1, "address":"S Ft Harrison Ave / Chestnut St"}},{"type": "Feature", "geometry": { "type": "Point", "coordinates": [-82.722378,28.27362]}, "properties": { "type": 1, "address":"Grand Blvd / US Hwy 19"}},{"type": "Feature", "geometry": { "type": "Point", "coordinates": [-82.717282,28.2805]}, "properties": { "type": 1, "address":"Ridge Rd / US Hwy 19"}},{"type": "Feature", "geometry": { "type": "Point", "coordinates": [-82.712275,27.813639]}, "properties": { "type": 1, "address":"58th St N / 46th Ave N"}},{"type": "Feature", "geometry": { "type": "Point", "coordinates": [-82.67771,28.043496]}, "properties": { "type": 1, "address":"Forest Lakes Blvd / Tampa Rd"}},{"type": "Feature", "geometry": { "type": "Point", "coordinates": [-82.661848,28.038204]}, "properties": { "type": 1, "address":"Tampa Rd / State Hwy 580"}},{"type": "Feature", "geometry": { "type": "Point", "coordinates": [-82.656524,28.036364]}, "properties": { "type": 1, "address":"Tampa Rd / E St Pete Dr"}},{"type": "Feature", "geometry": { "type": "Point", "coordinates": [-82.567275,28.066868]}, "properties": { "type": 5, "address":""}},{"type": "Feature", "geometry": { "type": "Point", "coordinates": [-82.566386,28.067096]}, "properties": { "type": 5, "address":""}},{"type": "Feature", "geometry": { "type": "Point", "coordinates": [-82.565512,28.044373]}, "properties": { "type": 5, "address":""}},{"type": "Feature", "geometry": { "type": "Point", "coordinates": [-82.552536,28.08607]}, "properties": { "type": 5, "address":""}},{"type": "Feature", "geometry": { "type": "Point", "coordinates": [-82.547514,28.130066]}, "properties": { "type": 5, "address":""}},{"type": "Feature", "geometry": { "type": "Point", "coordinates": [-82.549961,28.254143]}, "properties": { "type": 5, "address":""}},{"type": "Feature", "geometry": { "type": "Point", "coordinates": [-82.546004,27.992393]}, "properties": { "type": 5, "address":""}},{"type": "Feature", "geometry": { "type": "Point", "coordinates": [-82.544671,28.031166]}, "properties": { "type": 5, "address":""}},{"type": "Feature", "geometry": { "type": "Point", "coordinates": [-82.542729,28.099873]}, "properties": { "type": 5, "address":""}},{"type": "Feature", "geometry": { "type": "Point", "coordinates": [-82.542032,28.188238]}, "properties": { "type": 5, "address":""}},{"type": "Feature", "geometry": { "type": "Point", "coordinates": [-82.526823,27.893426]}, "properties": { "type": 1, "address":"S West Shore Blvd / W Gandy Blvd"}},{"type": "Feature", "geometry": { "type": "Point", "coordinates": [-82.524246,27.94484]}, "properties": { "type": 1, "address":"W Kennedy Blvd / N West Shore Blvd"}},{"type": "Feature", "geometry": { "type": "Point", "coordinates": [-82.506318,27.893705]}, "properties": { "type": 1, "address":"W Gandy Blvd / S Dale Mabry Hwy"}},{"type": "Feature", "geometry": { "type": "Point", "coordinates": [-82.505504,27.966795]}, "properties": { "type": 1, "address":"N Dale Mabry Hwy / W Columbus Dr"}},{"type": "Feature", "geometry": { "type": "Point", "coordinates": [-82.482983,27.944748]}, "properties": { "type": 1, "address":"W Kennedy Blvd / S Howard Ave"}},{"type": "Feature", "geometry": { "type": "Point", "coordinates": [-82.484259,28.025347]}, "properties": { "type": 1, "address":"N Armenia Ave / W Waters Ave"}},{"type": "Feature", "geometry": { "type": "Point", "coordinates": [-82.459453,27.996156]}, "properties": { "type": 1, "address":"N Florida Ave / W Hillsborough Ave"}},{"type": "Feature", "geometry": { "type": "Point", "coordinates": [-82.420779,28.552472]}, "properties": { "type": 1, "address":"Cortez Blvd / W Jefferson St"}},{"type": "Feature", "geometry": { "type": "Point", "coordinates": [-82.407253,28.534048]}, "properties": { "type": 1, "address":"Broad St / Wiscon Rd"}},{"type": "Feature", "geometry": { "type": "Point", "coordinates": [-82.484493,28.435737]}, "properties": { "type": 5, "address":""}},{"type": "Feature", "geometry": { "type": "Point", "coordinates": [-82.528503,28.3939]}, "properties": { "type": 5, "address":""}},{"type": "Feature", "geometry": { "type": "Point", "coordinates": [-82.746126,27.960524]}, "properties": { "type": 1, "address":"Belcher Rd / Gulf To Bay Blvd"}},{"type": "Feature", "geometry": { "type": "Point", "coordinates": [-82.728567,27.813629]}, "properties": { "type": 1, "address":"46th Ave N / 66th St"}},{"type": "Feature", "geometry": { "type": "Point", "coordinates": [-82.727674,28.23887]}, "properties": { "type": 1, "address":"US Hwy 19 / Gulf Dr"}},{"type": "Feature", "geometry": { "type": "Point", "coordinates": [-82.720425,27.821]}, "properties": { "type": 1, "address":"62nd St N / 54th Ave N"}},{"type": "Feature", "geometry": { "type": "Point", "coordinates": [-82.71226,27.821015]}, "properties": { "type": 1, "address":"54th Ave N / 58th St N"}},{"type": "Feature", "geometry": { "type": "Point", "coordinates": [-82.700402,28.048978]}, "properties": { "type": 1, "address":"Curlew Rd / Gull Aire Blvd"}},{"type": "Feature", "geometry": { "type": "Point", "coordinates": [-82.564364,28.045679]}, "properties": { "type": 5, "address":""}},{"type": "Feature", "geometry": { "type": "Point", "coordinates": [-82.54907,28.130491]}, "properties": { "type": 5, "address":""}},{"type": "Feature", "geometry": { "type": "Point", "coordinates": [-82.545553,27.993533]}, "properties": { "type": 5, "address":""}},{"type": "Feature", "geometry": { "type": "Point", "coordinates": [-82.544017,28.031185]}, "properties": { "type": 5, "address":""}},{"type": "Feature", "geometry": { "type": "Point", "coordinates": [-82.542075,28.098641]}, "properties": { "type": 5, "address":""}},{"type": "Feature", "geometry": { "type": "Point", "coordinates": [-82.543588,28.187709]}, "properties": { "type": 5, "address":""}},{"type": "Feature", "geometry": { "type": "Point", "coordinates": [-82.537599,28.025606]}, "properties": { "type": 1, "address":"W Waters Ave / Anderson Rd"}},{"type": "Feature", "geometry": { "type": "Point", "coordinates": [-82.518431,27.893569]}, "properties": { "type": 1, "address":"S Manhattan Ave / W Gandy Blvd"}},{"type": "Feature", "geometry": { "type": "Point", "coordinates": [-82.505681,27.944807]}, "properties": { "type": 1, "address":"S Dale Mabry Hwy / W Kennedy Blvd"}},{"type": "Feature", "geometry": { "type": "Point", "coordinates": [-82.504983,28.025432]}, "properties": { "type": 1, "address":"W Waters Ave / N Dale Mabry Hwy"}},{"type": "Feature", "geometry": { "type": "Point", "coordinates": [-82.500949,27.996073]}, "properties": { "type": 1, "address":"N Himes Ave / W Hillsborough Ave"}},{"type": "Feature", "geometry": { "type": "Point", "coordinates": [-82.488484,28.010573]}, "properties": { "type": 1, "address":"N Habana Ave / W Sligh Ave"}},{"type": "Feature", "geometry": { "type": "Point", "coordinates": [-82.484388,27.996183]}, "properties": { "type": 1, "address":"W Hillsborough Ave / N Armenia Ave"}},{"type": "Feature", "geometry": { "type": "Point", "coordinates": [-82.459676,27.947091]}, "properties": { "type": 1, "address":"W Kennedy Blvd / N Ashley Dr"}},{"type": "Feature", "geometry": { "type": "Point", "coordinates": [-82.459512,28.025364]}, "properties": { "type": 1, "address":"N Florida Ave / E Waters Ave"}},{"type": "Feature", "geometry": { "type": "Point", "coordinates": [-82.451123,27.996072]}, "properties": { "type": 1, "address":"E Hillsborough Ave / N Nebraska Ave"}},{"type": "Feature", "geometry": { "type": "Point", "coordinates": [-82.451121,28.054574]}, "properties": { "type": 1, "address":"E Fowler Ave / N Nebraska Ave"}},{"type": "Feature", "geometry": { "type": "Point", "coordinates": [-82.436675,27.953267]}, "properties": { "type": 5, "address":""}},{"type": "Feature", "geometry": { "type": "Point", "coordinates": [-82.434739,27.996069]}, "properties": { "type": 1, "address":"E Hillsborough Ave / N 22nd St"}},{"type": "Feature", "geometry": { "type": "Point", "coordinates": [-82.426119,28.054462]}, "properties": { "type": 1, "address":"E Fowler Ave / N 30th St"}},{"type": "Feature", "geometry": { "type": "Point", "coordinates": [-82.425914,27.957617]}, "properties": { "type": 5, "address":""}},{"type": "Feature", "geometry": { "type": "Point", "coordinates": [-82.426071,28.069192]}, "properties": { "type": 1, "address":"E Fletcher Ave / N 30th St"}},{"type": "Feature", "geometry": { "type": "Point", "coordinates": [-82.406499,28.541026]}, "properties": { "type": 1, "address":"Cortez Blvd / Buck Hope Rd"}},{"type": "Feature", "geometry": { "type": "Point", "coordinates": [-82.459469,28.032969]}, "properties": { "type": 1, "address":"N Florida Ave / E Busch Blvd"}},{"type": "Feature", "geometry": { "type": "Point", "coordinates": [-82.451271,28.032872]}, "properties": { "type": 1, "address":"N Nebraska Ave / E Busch Blvd"}}]}