{ "type": "FeatureCollection", "features": [{"type": "Feature", "geometry": { "type": "Point", "coordinates": [-122.376195,47.668667]}, "properties": { "type": 1, "address":"NW Market St / 15th Ave NW"}},{"type": "Feature", "geometry": { "type": "Point", "coordinates": [-122.376806,47.686874]}, "properties": { "type": 1, "address":"NW 80th St / 15th Ave NW"}},{"type": "Feature", "geometry": { "type": "Point", "coordinates": [-122.334291,47.618529]}, "properties": { "type": 1, "address":"Denny Way / Fairview Ave N"}},{"type": "Feature", "geometry": { "type": "Point", "coordinates": [-122.342452,47.655387]}, "properties": { "type": 1, "address":"N 40th St / Stone Way N"}},{"type": "Feature", "geometry": { "type": "Point", "coordinates": [-122.323088,47.698561]}, "properties": { "type": 4, "address":"5th Ave NE"}},{"type": "Feature", "geometry": { "type": "Point", "coordinates": [-122.320797,47.615246]}, "properties": { "type": 1, "address":"Broadway Ave / E Pine St"}},{"type": "Feature", "geometry": { "type": "Point", "coordinates": [-122.315098,47.821202]}, "properties": { "type": 1, "address":"196th St SW / Pacific Hwy"}},{"type": "Feature", "geometry": { "type": "Point", "coordinates": [-122.302539,47.620215]}, "properties": { "type": 1, "address":"E John St / 23rd Ave E"}},{"type": "Feature", "geometry": { "type": "Point", "coordinates": [-122.296284,47.683056]}, "properties": { "type": 4, "address":"NE 75th St"}},{"type": "Feature", "geometry": { "type": "Point", "coordinates": [-122.3445,47.69056]}, "properties": { "type": 1, "address":"N 85th St / Aurora Ave N"}},{"type": "Feature", "geometry": { "type": "Point", "coordinates": [-122.322958,47.686792]}, "properties": { "type": 1, "address":"5th Ave NE / NE 80th St"}},{"type": "Feature", "geometry": { "type": "Point", "coordinates": [-122.292378,47.820954]}, "properties": { "type": 1, "address":"44th Ave W / 196 St SW"}},{"type": "Feature", "geometry": { "type": "Point", "coordinates": [-122.292355,47.817337]}, "properties": { "type": 1, "address":"44th Ave W / 200th St SW"}},{"type": "Feature", "geometry": { "type": "Point", "coordinates": [-122.268565,47.831824]}, "properties": { "type": 1, "address":"Alderwood Mall Pkwy / 184th St SW"}},{"type": "Feature", "geometry": { "type": "Point", "coordinates": [-122.185678,47.617352]}, "properties": { "type": 1, "address":"116th Ave NE / NE 8th St"}},{"type": "Feature", "geometry": { "type": "Point", "coordinates": [-122.320874,47.619902]}, "properties": { "type": 1, "address":"Broadway E / E John St"}},{"type": "Feature", "geometry": { "type": "Point", "coordinates": [-122.289795,47.755689]}, "properties": { "type": 4, "address":"NE 178th St"}},{"type": "Feature", "geometry": { "type": "Point", "coordinates": [-122.291873,47.764532]}, "properties": { "type": 4, "address":"35th Ave NE"}},{"type": "Feature", "geometry": { "type": "Point", "coordinates": [-122.143101,47.626548]}, "properties": { "type": 1, "address":"148th Ave NE / Bel Red Rd"}},{"type": "Feature", "geometry": { "type": "Point", "coordinates": [-122.190994,47.617361]}, "properties": { "type": 1, "address":"112th Ave NE / NE 8th St"}},{"type": "Feature", "geometry": { "type": "Point", "coordinates": [-122.010921,47.858463]}, "properties": { "type": 4, "address":"154th St SE"}},{"type": "Feature", "geometry": { "type": "Point", "coordinates": [-122.890371,49.148596]}, "properties": { "type": 1, "address":"120 Street / and 80 Avenue"}},{"type": "Feature", "geometry": { "type": "Point", "coordinates": [-122.890361,49.162061]}, "properties": { "type": 1, "address":"Nordel Way / 120 Street"}},{"type": "Feature", "geometry": { "type": "Point", "coordinates": [-122.890164,49.177122]}, "properties": { "type": 1, "address":"120 Street / 96 Avenue"}},{"type": "Feature", "geometry": { "type": "Point", "coordinates": [-122.882858,49.231369]}, "properties": { "type": 1, "address":"Brunette Avenue / Braid Street"}},{"type": "Feature", "geometry": { "type": "Point", "coordinates": [-122.867846,49.133884]}, "properties": { "type": 1, "address":"72 Avenue / 128 Street"}},{"type": "Feature", "geometry": { "type": "Point", "coordinates": [-122.868037,49.162592]}, "properties": { "type": 1, "address":"128 Street / 88 Avenue"}},{"type": "Feature", "geometry": { "type": "Point", "coordinates": [-122.856906,49.162639]}, "properties": { "type": 1, "address":"132 Street / 88 Avenue"}},{"type": "Feature", "geometry": { "type": "Point", "coordinates": [-122.856825,49.1771]}, "properties": { "type": 1, "address":"96 Avenue / 132 Street"}},{"type": "Feature", "geometry": { "type": "Point", "coordinates": [-122.84557,49.11903]}, "properties": { "type": 1, "address":"64 Avenue / King George Boulevard"}},{"type": "Feature", "geometry": { "type": "Point", "coordinates": [-122.845661,49.133548]}, "properties": { "type": 1, "address":"King George Boulevard / 72 Avenue"}},{"type": "Feature", "geometry": { "type": "Point", "coordinates": [-122.845712,49.140829]}, "properties": { "type": 1, "address":"King George Boulevard / 76 Avenue"}},{"type": "Feature", "geometry": { "type": "Point", "coordinates": [-122.845747,49.148158]}, "properties": { "type": 1, "address":"King George Boulevard / 80 Avenue"}},{"type": "Feature", "geometry": { "type": "Point", "coordinates": [-122.845925,49.170044]}, "properties": { "type": 1, "address":"King George Boulevard / 92 Avenue"}},{"type": "Feature", "geometry": { "type": "Point", "coordinates": [-122.845337,49.191605]}, "properties": { "type": 1, "address":"King George Boulevard / 104 Avenue"}},{"type": "Feature", "geometry": { "type": "Point", "coordinates": [-122.845953,49.19885]}, "properties": { "type": 1, "address":"King George Boulevard / 108 Avenue"}},{"type": "Feature", "geometry": { "type": "Point", "coordinates": [-122.827482,49.280779]}, "properties": { "type": 1, "address":"Murry Street / Ioco Road"}},{"type": "Feature", "geometry": { "type": "Point", "coordinates": [-122.800989,49.119067]}, "properties": { "type": 1, "address":"64 Avenue / 152 Street"}},{"type": "Feature", "geometry": { "type": "Point", "coordinates": [-122.801495,49.166078]}, "properties": { "type": 1, "address":"152 Street / Fraser Hwy"}},{"type": "Feature", "geometry": { "type": "Point", "coordinates": [-122.800901,49.184195]}, "properties": { "type": 1, "address":"100 Avenue / 152 Street"}},{"type": "Feature", "geometry": { "type": "Point", "coordinates": [-122.795627,49.227176]}, "properties": { "type": 1, "address":"Mary Hill Bypass / Shaughnessy Street"}},{"type": "Feature", "geometry": { "type": "Point", "coordinates": [-122.793696,49.163053]}, "properties": { "type": 1, "address":"88 Avenue / Fraser Hwy"}},{"type": "Feature", "geometry": { "type": "Point", "coordinates": [-122.79243,49.284878]}, "properties": { "type": 1, "address":"Guilford Way / Pinetree Way"}},{"type": "Feature", "geometry": { "type": "Point", "coordinates": [-122.776452,49.26749]}, "properties": { "type": 1, "address":"Lougheed Hwy / Shaughnessy Street"}},{"type": "Feature", "geometry": { "type": "Point", "coordinates": [-122.769391,49.234555]}, "properties": { "type": 1, "address":"Mary Hill Bypass / Pitt River Road"}},{"type": "Feature", "geometry": { "type": "Point", "coordinates": [-122.735025,49.118777]}, "properties": { "type": 1, "address":"176 Street / 64 Avenue"}},{"type": "Feature", "geometry": { "type": "Point", "coordinates": [-122.6895,49.231127]}, "properties": { "type": 1, "address":"Lougheed Hwy / Harris Road"}},{"type": "Feature", "geometry": { "type": "Point", "coordinates": [-122.675453,49.111893]}, "properties": { "type": 1, "address":"Langley Bypass / Fraser Hwy"}},{"type": "Feature", "geometry": { "type": "Point", "coordinates": [-122.647923,49.218265]}, "properties": { "type": 1, "address":"Lougheed Hwy / 207 Street"}},{"type": "Feature", "geometry": { "type": "Point", "coordinates": [-122.834646,49.162784]}, "properties": { "type": 1, "address":"88 Avenue / 140 Street"}},{"type": "Feature", "geometry": { "type": "Point", "coordinates": [-122.82852,49.176538]}, "properties": { "type": 1, "address":"Fraser Hwy / 96 Avenue"}},{"type": "Feature", "geometry": { "type": "Point", "coordinates": [-122.801498,49.162844]}, "properties": { "type": 1, "address":"88 Avenue / 152 Street"}},{"type": "Feature", "geometry": { "type": "Point", "coordinates": [-122.801711,49.277261]}, "properties": { "type": 1, "address":"Barnet Hwy / Mariner Way"}},{"type": "Feature", "geometry": { "type": "Point", "coordinates": [-122.797314,49.27629]}, "properties": { "type": 1, "address":"Lougheed Hwy / Pinetree Way"}},{"type": "Feature", "geometry": { "type": "Point", "coordinates": [-122.657625,49.21924]}, "properties": { "type": 1, "address":"Lougheed Hwy / 203 Street"}},{"type": "Feature", "geometry": { "type": "Point", "coordinates": [-122.871954,49.236683]}, "properties": { "type": 1, "address":"Lougheed Hwy / Brunette Avenue"}},{"type": "Feature", "geometry": { "type": "Point", "coordinates": [-122.867996,49.177173]}, "properties": { "type": 1, "address":"96 Avenue / 128 Street"}},{"type": "Feature", "geometry": { "type": "Point", "coordinates": [-122.845872,49.162758]}, "properties": { "type": 1, "address":"88 Avenue / King George Boulevard"}},{"type": "Feature", "geometry": { "type": "Point", "coordinates": [-122.845747,49.177032]}, "properties": { "type": 1, "address":"96 Avenue / King George Boulevard"}},{"type": "Feature", "geometry": { "type": "Point", "coordinates": [-122.801273,49.250604]}, "properties": { "type": 1, "address":"Lougheed Hwy / Pitt River Road"}},{"type": "Feature", "geometry": { "type": "Point", "coordinates": [-122.80089,49.191476]}, "properties": { "type": 1, "address":"104 Avenue / 152 Street"}},{"type": "Feature", "geometry": { "type": "Point", "coordinates": [-122.668544,49.119003]}, "properties": { "type": 1, "address":"200 Street / 64 Avenue"}},{"type": "Feature", "geometry": { "type": "Point", "coordinates": [-122.664194,49.221217]}, "properties": { "type": 1, "address":"Lougheed Hwy / Maple Meadows Way"}},{"type": "Feature", "geometry": { "type": "Point", "coordinates": [-122.867386,49.206332]}, "properties": { "type": 1, "address":"King George Boulevard / 128 Street"}},{"type": "Feature", "geometry": { "type": "Point", "coordinates": [-122.801102,49.104436]}, "properties": { "type": 1, "address":"152 Street/ 56 Avenue"}},{"type": "Feature", "geometry": { "type": "Point", "coordinates": [-122.645803,49.162737]}, "properties": { "type": 1, "address":"88 Avenue / 208 Street"}},{"type": "Feature", "geometry": { "type": "Point", "coordinates": [-122.890493,49.108235]}, "properties": { "type": 1, "address":"Hwy 10 / 120 Street"}},{"type": "Feature", "geometry": { "type": "Point", "coordinates": [-122.315247,49.055371]}, "properties": { "type": 1, "address":"George Ferguson Way / Gladwin Road"}},{"type": "Feature", "geometry": { "type": "Point", "coordinates": [-121.960011,49.14091]}, "properties": { "type": 1, "address":"Vedder Road / Luckakuck Way"}},{"type": "Feature", "geometry": { "type": "Point", "coordinates": [-122.326164,49.132923]}, "properties": { "type": 1, "address":"Lougheed Hwy / Cedar Valley Connector"}},{"type": "Feature", "geometry": { "type": "Point", "coordinates": [-122.267023,49.035011]}, "properties": { "type": 1, "address":"Route 11 / Lonzo Road"}},{"type": "Feature", "geometry": { "type": "Point", "coordinates": [-121.957922,49.111294]}, "properties": { "type": 1, "address":"Vedder Road / Promontory Road"}},{"type": "Feature", "geometry": { "type": "Point", "coordinates": [-122.271581,47.835846]}, "properties": { "type": 1, "address":"Alderwood Mall Pkwy / 177th Pl SW"}},{"type": "Feature", "geometry": { "type": "Point", "coordinates": [-122.271023,47.820865]}, "properties": { "type": 1, "address":"28th Ave W / 196th St SW"}},{"type": "Feature", "geometry": { "type": "Point", "coordinates": [-122.282961,47.820972]}, "properties": { "type": 1, "address":"196th St SW / 37th Ave W"}},{"type": "Feature", "geometry": { "type": "Point", "coordinates": [-122.318196,47.817582]}, "properties": { "type": 1, "address":"200th St SW / Pacific Hwy"}},{"type": "Feature", "geometry": { "type": "Point", "coordinates": [-122.284861,47.748269]}, "properties": { "type": 1, "address":"NE 165th St / Bothell Way NE"}},{"type": "Feature", "geometry": { "type": "Point", "coordinates": [-122.292437,47.83083]}, "properties": { "type": 4, "address":"44th Ave W"}},{"type": "Feature", "geometry": { "type": "Point", "coordinates": [-122.312827,47.846582]}, "properties": { "type": 4, "address":"168th St SW"}},{"type": "Feature", "geometry": { "type": "Point", "coordinates": [-122.285284,47.763162]}, "properties": { "type": 4, "address":"40th Pl NE"}},{"type": "Feature", "geometry": { "type": "Point", "coordinates": [-122.355553,47.725625]}, "properties": { "type": 4, "address":"Greenwood Ave N"}},{"type": "Feature", "geometry": { "type": "Point", "coordinates": [-122.317709,47.661311]}, "properties": { "type": 1, "address":"NE 45th St / Roosevelt Way NE"}},{"type": "Feature", "geometry": { "type": "Point", "coordinates": [-122.328913,47.613464]}, "properties": { "type": 1, "address":"Pike St / Boren Ave"}},{"type": "Feature", "geometry": { "type": "Point", "coordinates": [-122.293324,49.039039]}, "properties": { "type": 1, "address":"Marshall Rd / McCallum Rd"}},{"type": "Feature", "geometry": { "type": "Point", "coordinates": [-122.64589,49.111907]}, "properties": { "type": 1, "address":"Langley Bypass / Clover Rd"}},{"type": "Feature", "geometry": { "type": "Point", "coordinates": [-122.801313,49.05175]}, "properties": { "type": 1, "address":"King George Boulevard / 152 Street"}},{"type": "Feature", "geometry": { "type": "Point", "coordinates": [-122.890336,49.134089]}, "properties": { "type": 1, "address":"72 Avenue / 120 Street"}},{"type": "Feature", "geometry": { "type": "Point", "coordinates": [-122.719584,49.243013]}, "properties": { "type": 1, "address":"Lougheed Hwy / Old Dewdney Trunk Rd"}},{"type": "Feature", "geometry": { "type": "Point", "coordinates": [-122.280256,47.752023]}, "properties": { "type": 1, "address":"Bothell Way NE / NE 170th Pl"}},{"type": "Feature", "geometry": { "type": "Point", "coordinates": [-122.149573,47.617136]}, "properties": { "type": 4, "address":"NE 8th St"}},{"type": "Feature", "geometry": { "type": "Point", "coordinates": [-122.328879,47.716742]}, "properties": { "type": 4, "address":"1st Ave NE"}},{"type": "Feature", "geometry": { "type": "Point", "coordinates": [-122.302056,47.641091]}, "properties": { "type": 4, "address":"24th Ave E"}},{"type": "Feature", "geometry": { "type": "Point", "coordinates": [-122.30196,47.639166]}, "properties": { "type": 4, "address":"24th Ave E"}},{"type": "Feature", "geometry": { "type": "Point", "coordinates": [-122.292327,47.68305]}, "properties": { "type": 4, "address":"NE 75th St"}},{"type": "Feature", "geometry": { "type": "Point", "coordinates": [-122.355533,47.723353]}, "properties": { "type": 4, "address":"Greenwood Ave N"}},{"type": "Feature", "geometry": { "type": "Point", "coordinates": [-122.323072,47.696677]}, "properties": { "type": 4, "address":"5th Ave NE"}}]}