{ "type": "FeatureCollection", "features": [{"type": "Feature", "geometry": { "type": "Point", "coordinates": [-90.859417,38.825175]}, "properties": { "type": 1, "address":"Bridlespur Dr / Wentzville Pkwy"}},{"type": "Feature", "geometry": { "type": "Point", "coordinates": [-92.334286,38.937837]}, "properties": { "type": 1, "address":"S Providence Rd / E Stadium Blvd"}},{"type": "Feature", "geometry": { "type": "Point", "coordinates": [-92.359311,38.938028]}, "properties": { "type": 1, "address":"Stadium Blvd / West Blvd S"}},{"type": "Feature", "geometry": { "type": "Point", "coordinates": [-91.405685,39.685416]}, "properties": { "type": 1, "address":"US Hwy 61 / McMasters Ave"}},{"type": "Feature", "geometry": { "type": "Point", "coordinates": [-91.394751,39.728472]}, "properties": { "type": 1, "address":"US Hwy 61 / McMasters Ave"}},{"type": "Feature", "geometry": { "type": "Point", "coordinates": [-91.389038,39.705773]}, "properties": { "type": 1, "address":"James Rd / State Hwy Mm"}}]}