{ "type": "FeatureCollection", "features": [{"type": "Feature", "geometry": { "type": "Point", "coordinates": [-88.828266,35.654684]}, "properties": { "type": 1, "address":"Old Hickory Blvd E / N Highland Ave"}},{"type": "Feature", "geometry": { "type": "Point", "coordinates": [-88.829258,35.667492]}, "properties": { "type": 1, "address":"Carriage House Dr / N Highland Ave"}},{"type": "Feature", "geometry": { "type": "Point", "coordinates": [-88.579932,35.158239]}, "properties": { "type": 1, "address":"Mulberry Ave / US Hwy 64"}},{"type": "Feature", "geometry": { "type": "Point", "coordinates": [-88.855518,35.6813]}, "properties": { "type": 1, "address":"Channing Way / Hwy 45 Byp"}},{"type": "Feature", "geometry": { "type": "Point", "coordinates": [-88.572087,35.140943]}, "properties": { "type": 1, "address":"Mulberry Ave / State Hwy 142"}}]}