{ "type": "FeatureCollection", "features": [{"type": "Feature", "geometry": { "type": "Point", "coordinates": [-76.36876,38.991403]}, "properties": { "type": 5, "address":""}},{"type": "Feature", "geometry": { "type": "Point", "coordinates": [-75.317357,38.599133]}, "properties": { "type": 1, "address":"Hardscrabble Rd / Dupont Hwy"}},{"type": "Feature", "geometry": { "type": "Point", "coordinates": [-75.123659,38.723764]}, "properties": { "type": 1, "address":"Coastal Hwy / Munchy Branch Rd"}},{"type": "Feature", "geometry": { "type": "Point", "coordinates": [-75.593941,38.66068]}, "properties": { "type": 1, "address":"Sussex Hwy / Rd 534"}},{"type": "Feature", "geometry": { "type": "Point", "coordinates": [-75.515178,39.163302]}, "properties": { "type": 1, "address":"E Division St / S Dupont Hwy"}},{"type": "Feature", "geometry": { "type": "Point", "coordinates": [-75.513669,39.161488]}, "properties": { "type": 1, "address":"E Loockerman St / S Dupont Hwy"}},{"type": "Feature", "geometry": { "type": "Point", "coordinates": [-75.555734,39.200015]}, "properties": { "type": 1, "address":"N Dupont Hwy / Scarborough Rd"}},{"type": "Feature", "geometry": { "type": "Point", "coordinates": [-75.129088,38.728027]}, "properties": { "type": 1, "address":"Old Rd / Coastal Hwy"}},{"type": "Feature", "geometry": { "type": "Point", "coordinates": [-75.528226,39.132752]}, "properties": { "type": 1, "address":"Webbs Ln / S Dupont Hwy"}},{"type": "Feature", "geometry": { "type": "Point", "coordinates": [-75.593259,38.749169]}, "properties": { "type": 1, "address":"Rd 40 / Sussex Hwy"}},{"type": "Feature", "geometry": { "type": "Point", "coordinates": [-75.517026,39.168154]}, "properties": { "type": 1, "address":"N Dupont Hwy / Kings Hwy"}},{"type": "Feature", "geometry": { "type": "Point", "coordinates": [-74.70974,39.193715]}, "properties": { "type": 5, "address":""}},{"type": "Feature", "geometry": { "type": "Point", "coordinates": [-75.518156,39.143188]}, "properties": { "type": 1, "address":"Roosevelt Ave / S Dupont Hwy"}}]}