{ "type": "FeatureCollection", "features": [{"type": "Feature", "geometry": { "type": "Point", "coordinates": [-92.075237,30.195992]}, "properties": { "type": 1, "address":"W Congress St / Ambassador Caffery Pkwy"}},{"type": "Feature", "geometry": { "type": "Point", "coordinates": [-92.075677,30.210522]}, "properties": { "type": 1, "address":"Dulles Dr / Ambassador Caffery Pkwy"}},{"type": "Feature", "geometry": { "type": "Point", "coordinates": [-92.070075,30.198271]}, "properties": { "type": 1, "address":"Guilbeau Rd / W Congress St"}},{"type": "Feature", "geometry": { "type": "Point", "coordinates": [-92.052111,30.202331]}, "properties": { "type": 1, "address":"Woodvale Ave / Johnston St"}},{"type": "Feature", "geometry": { "type": "Point", "coordinates": [-92.052139,30.222366]}, "properties": { "type": 1, "address":"Dulles Dr / Bertrand Dr"}},{"type": "Feature", "geometry": { "type": "Point", "coordinates": [-92.038355,30.207291]}, "properties": { "type": 1, "address":"Johnston St / S College Rd"}},{"type": "Feature", "geometry": { "type": "Point", "coordinates": [-92.030463,30.229312]}, "properties": { "type": 1, "address":"Agnes St / W University Ave"}},{"type": "Feature", "geometry": { "type": "Point", "coordinates": [-92.02361,30.295578]}, "properties": { "type": 1, "address":"NE Evangeline Throughway / E Gloria Switch Rd"}},{"type": "Feature", "geometry": { "type": "Point", "coordinates": [-91.995072,30.226233]}, "properties": { "type": 1, "address":"E Simcoe St / E Pinhook Rd"}},{"type": "Feature", "geometry": { "type": "Point", "coordinates": [-92.035924,30.250639]}, "properties": { "type": 1, "address":"N University Ave / I- 10"}},{"type": "Feature", "geometry": { "type": "Point", "coordinates": [-91.139603,30.422742]}, "properties": { "type": 1, "address":"College Dr / I- 10"}},{"type": "Feature", "geometry": { "type": "Point", "coordinates": [-91.067584,30.417522]}, "properties": { "type": 1, "address":"Cedarcrest Ave / Coursey Blvd"}},{"type": "Feature", "geometry": { "type": "Point", "coordinates": [-91.051534,30.411113]}, "properties": { "type": 1, "address":"Coursey Blvd / S Sherwood Forest Blvd"}},{"type": "Feature", "geometry": { "type": "Point", "coordinates": [-91.164029,30.608068]}, "properties": { "type": 4, "address":"Main St"}},{"type": "Feature", "geometry": { "type": "Point", "coordinates": [-91.125937,30.583399]}, "properties": { "type": 4, "address":"Plank Rd"}},{"type": "Feature", "geometry": { "type": "Point", "coordinates": [-91.143292,30.416497]}, "properties": { "type": 1, "address":"College Dr / Perkins Rd"}},{"type": "Feature", "geometry": { "type": "Point", "coordinates": [-91.112099,30.451685]}, "properties": { "type": 3, "address":""}},{"type": "Feature", "geometry": { "type": "Point", "coordinates": [-91.10542,30.401791]}, "properties": { "type": 1, "address":"Hennessy Blvd / Essen Ln"}},{"type": "Feature", "geometry": { "type": "Point", "coordinates": [-91.088948,30.443204]}, "properties": { "type": 1, "address":"Goodwood Blvd / Airline Hwy"}},{"type": "Feature", "geometry": { "type": "Point", "coordinates": [-91.080712,30.43167]}, "properties": { "type": 1, "address":"Old Hammond Hwy / Airline Hwy"}},{"type": "Feature", "geometry": { "type": "Point", "coordinates": [-91.176714,30.543422]}, "properties": { "type": 1, "address":"Scotland Ave / Blount Rd"}},{"type": "Feature", "geometry": { "type": "Point", "coordinates": [-91.183693,30.404546]}, "properties": { "type": 1, "address":"Nicholson Dr / Gourrier Ave"}},{"type": "Feature", "geometry": { "type": "Point", "coordinates": [-92.03626,30.167244]}, "properties": { "type": 1, "address":"Kaliste Saloom Rd / Camellia Blvd"}},{"type": "Feature", "geometry": { "type": "Point", "coordinates": [-92.038924,30.169778]}, "properties": { "type": 1, "address":"Settlers Trace Blvd / Camellia Blvd"}},{"type": "Feature", "geometry": { "type": "Point", "coordinates": [-91.190906,30.540556]}, "properties": { "type": 1, "address":"Blount Rd / Scenic Hwy"}},{"type": "Feature", "geometry": { "type": "Point", "coordinates": [-91.099143,30.457468]}, "properties": { "type": 1, "address":"Airline Hwy / Florline Blvd"}},{"type": "Feature", "geometry": { "type": "Point", "coordinates": [-91.058138,30.458838]}, "properties": { "type": 1, "address":"Sherwood Forest Blvd / Florida Blvd"}},{"type": "Feature", "geometry": { "type": "Point", "coordinates": [-91.166335,30.597284]}, "properties": { "type": 4, "address":"Main St"}},{"type": "Feature", "geometry": { "type": "Point", "coordinates": [-91.164493,30.587995]}, "properties": { "type": 4, "address":"Groom Rd"}},{"type": "Feature", "geometry": { "type": "Point", "coordinates": [-91.17933,30.588979]}, "properties": { "type": 4, "address":"Groom Rd"}},{"type": "Feature", "geometry": { "type": "Point", "coordinates": [-91.169983,30.578359]}, "properties": { "type": 4, "address":"Main St"}},{"type": "Feature", "geometry": { "type": "Point", "coordinates": [-91.057368,30.432787]}, "properties": { "type": 1, "address":"N Harrells Ferry Rd / S Sherwood Forest Blvd"}},{"type": "Feature", "geometry": { "type": "Point", "coordinates": [-91.138638,30.424345]}, "properties": { "type": 1, "address":"I- 10 Svc Rd / Aldrich Dr"}}]}