{ "type": "FeatureCollection", "features": [{"type": "Feature", "geometry": { "type": "Point", "coordinates": [-84.293631,34.070904]}, "properties": { "type": 1, "address":"Haynes Bridge Rd / Old Milton Pkwy"}},{"type": "Feature", "geometry": { "type": "Point", "coordinates": [-84.286511,34.04855]}, "properties": { "type": 1, "address":"N Point Pkwy / Haynes Bridge Rd"}},{"type": "Feature", "geometry": { "type": "Point", "coordinates": [-84.208464,33.96112]}, "properties": { "type": 1, "address":"Gmiddlewich Ln NW / Peachtree Industrial Blvd"}},{"type": "Feature", "geometry": { "type": "Point", "coordinates": [-84.146311,33.930797]}, "properties": { "type": 1, "address":"Steven Reynolds Blvd / Beaver Ruin Rd"}},{"type": "Feature", "geometry": { "type": "Point", "coordinates": [-83.990965,34.061863]}, "properties": { "type": 1, "address":"Mall of Georgia Blvd / Buford Dr"}},{"type": "Feature", "geometry": { "type": "Point", "coordinates": [-84.550332,33.947289]}, "properties": { "type": 1, "address":"S Marietta Pkwy / Powder Springs St"}},{"type": "Feature", "geometry": { "type": "Point", "coordinates": [-84.536421,33.967886]}, "properties": { "type": 1, "address":"Cobb Pkwy NW / Allgood Rd"}},{"type": "Feature", "geometry": { "type": "Point", "coordinates": [-84.487287,33.902785]}, "properties": { "type": 1, "address":"Windy Hill Rd SE / Cobb Pkwy SE"}},{"type": "Feature", "geometry": { "type": "Point", "coordinates": [-84.294545,34.075628]}, "properties": { "type": 1, "address":"N Main St / Milton Ave"}},{"type": "Feature", "geometry": { "type": "Point", "coordinates": [-85.312537,35.046032]}, "properties": { "type": 1, "address":"Pine St / W 9th St"}},{"type": "Feature", "geometry": { "type": "Point", "coordinates": [-85.296153,35.064587]}, "properties": { "type": 4, "address":"Barton Ave"}},{"type": "Feature", "geometry": { "type": "Point", "coordinates": [-85.292116,35.039781]}, "properties": { "type": 1, "address":"Central Ave / E M L King Blvd"}},{"type": "Feature", "geometry": { "type": "Point", "coordinates": [-85.248726,35.141829]}, "properties": { "type": 1, "address":"Gadd Rd / State Rte 153"}},{"type": "Feature", "geometry": { "type": "Point", "coordinates": [-85.239498,35.123094]}, "properties": { "type": 1, "address":"State Rte 153 / Hamill Rd"}},{"type": "Feature", "geometry": { "type": "Point", "coordinates": [-84.144527,35.90558]}, "properties": { "type": 1, "address":"Lovell Rd / I- 40"}},{"type": "Feature", "geometry": { "type": "Point", "coordinates": [-84.13992,35.900752]}, "properties": { "type": 1, "address":"Parkside Dr / Lovell Rd"}},{"type": "Feature", "geometry": { "type": "Point", "coordinates": [-84.181673,35.871441]}, "properties": { "type": 1, "address":"Kingston Pike / Smith Rd"}},{"type": "Feature", "geometry": { "type": "Point", "coordinates": [-84.153439,35.884419]}, "properties": { "type": 1, "address":"Concord Rd / Kingston Pike"}},{"type": "Feature", "geometry": { "type": "Point", "coordinates": [-84.088579,35.915353]}, "properties": { "type": 1, "address":"N Peters Rd / N Cedar Bluff Rd"}},{"type": "Feature", "geometry": { "type": "Point", "coordinates": [-84.160449,35.881233]}, "properties": { "type": 1, "address":"N Campbell Station Rd / Kingston Pike"}},{"type": "Feature", "geometry": { "type": "Point", "coordinates": [-84.145685,35.906494]}, "properties": { "type": 1, "address":"Lovell Rd / I- 40"}},{"type": "Feature", "geometry": { "type": "Point", "coordinates": [-83.846978,35.908931]}, "properties": { "type": 1, "address":"Chapman Hwy / Green Rd"}},{"type": "Feature", "geometry": { "type": "Point", "coordinates": [-84.122395,33.941201]}, "properties": { "type": 1, "address":"Club Dr / Pleasant Hill Rd"}},{"type": "Feature", "geometry": { "type": "Point", "coordinates": [-85.228278,35.01296]}, "properties": { "type": 1, "address":"N Moore Rd / Club Dr"}},{"type": "Feature", "geometry": { "type": "Point", "coordinates": [-85.28286,35.038935]}, "properties": { "type": 1, "address":"S Holtzclaw Ave / McCallie Ave"}},{"type": "Feature", "geometry": { "type": "Point", "coordinates": [-85.274625,34.994772]}, "properties": { "type": 4, "address":"S Crest Rd"}},{"type": "Feature", "geometry": { "type": "Point", "coordinates": [-85.250496,35.016737]}, "properties": { "type": 4, "address":"S Germantown Rd"}},{"type": "Feature", "geometry": { "type": "Point", "coordinates": [-85.279679,35.017948]}, "properties": { "type": 1, "address":"S Kelley St / E 23rd St"}},{"type": "Feature", "geometry": { "type": "Point", "coordinates": [-85.286747,35.090709]}, "properties": { "type": 4, "address":"Hixson Pike"}},{"type": "Feature", "geometry": { "type": "Point", "coordinates": [-85.280936,35.097463]}, "properties": { "type": 4, "address":"Hixson Pike"}},{"type": "Feature", "geometry": { "type": "Point", "coordinates": [-85.277849,35.100097]}, "properties": { "type": 4, "address":"Hixson Pike"}},{"type": "Feature", "geometry": { "type": "Point", "coordinates": [-85.282313,35.096278]}, "properties": { "type": 4, "address":"Hixson Pike"}},{"type": "Feature", "geometry": { "type": "Point", "coordinates": [-85.298327,35.063343]}, "properties": { "type": 4, "address":"Barton Ave"}},{"type": "Feature", "geometry": { "type": "Point", "coordinates": [-85.253607,35.136176]}, "properties": { "type": 4, "address":"Norcross Rd"}},{"type": "Feature", "geometry": { "type": "Point", "coordinates": [-85.137353,35.045671]}, "properties": { "type": 4, "address":"Pinewood Dr"}},{"type": "Feature", "geometry": { "type": "Point", "coordinates": [-84.17307,35.893339]}, "properties": { "type": 1, "address":"Grigsby Chapel Rd / N Campbell Station Rd"}}]}