{ "type": "FeatureCollection", "features": [{"type": "Feature", "geometry": { "type": "Point", "coordinates": [-85.402361,30.950323]}, "properties": { "type": 1, "address":"State Hwy 2 / US Hwy 231"}},{"type": "Feature", "geometry": { "type": "Point", "coordinates": [-84.261787,30.436898]}, "properties": { "type": 1, "address":"S Magnolia Dr / Apalachee Pkwy"}},{"type": "Feature", "geometry": { "type": "Point", "coordinates": [-84.227992,30.460082]}, "properties": { "type": 1, "address":"Capital Cir NE / Mahan Dr"}},{"type": "Feature", "geometry": { "type": "Point", "coordinates": [-86.300099,32.368385]}, "properties": { "type": 1, "address":"S Union St / E South St"}},{"type": "Feature", "geometry": { "type": "Point", "coordinates": [-86.271009,32.372416]}, "properties": { "type": 1, "address":"Highland Ave / Ann St"}},{"type": "Feature", "geometry": { "type": "Point", "coordinates": [-86.26085,32.3414]}, "properties": { "type": 1, "address":"Carter Hill Rd / Crawford St"}},{"type": "Feature", "geometry": { "type": "Point", "coordinates": [-86.257387,32.385396]}, "properties": { "type": 1, "address":"Coliseum Blvd / Atlanta Hwy"}},{"type": "Feature", "geometry": { "type": "Point", "coordinates": [-86.246196,32.383114]}, "properties": { "type": 1, "address":"Atlanta Hwy / Perry Hill Rd"}},{"type": "Feature", "geometry": { "type": "Point", "coordinates": [-86.223948,32.34421]}, "properties": { "type": 1, "address":"Vaughn Rd / Eastern Blvd"}},{"type": "Feature", "geometry": { "type": "Point", "coordinates": [-86.212456,32.399829]}, "properties": { "type": 1, "address":"Plantation Way / US Hwy 231"}},{"type": "Feature", "geometry": { "type": "Point", "coordinates": [-84.317138,30.44858]}, "properties": { "type": 1, "address":"W Tennessee St / N Ocala Rd"}},{"type": "Feature", "geometry": { "type": "Point", "coordinates": [-84.280675,30.444707]}, "properties": { "type": 1, "address":"N Monroe St / E Tennessee St"}},{"type": "Feature", "geometry": { "type": "Point", "coordinates": [-86.209529,32.37093]}, "properties": { "type": 1, "address":"Shirley Ln / Eastern Blvd"}},{"type": "Feature", "geometry": { "type": "Point", "coordinates": [-86.215254,32.359856]}, "properties": { "type": 1, "address":"Carmichael Rd / Eastern Blvd"}},{"type": "Feature", "geometry": { "type": "Point", "coordinates": [-86.238317,32.323573]}, "properties": { "type": 1, "address":"Troy Hwy / Virginia Loop Rd"}},{"type": "Feature", "geometry": { "type": "Point", "coordinates": [-86.24123,32.327159]}, "properties": { "type": 1, "address":"West Blvd / Troy Hwy"}},{"type": "Feature", "geometry": { "type": "Point", "coordinates": [-86.264757,32.327107]}, "properties": { "type": 1, "address":"Woodley Rd / West Blvd"}},{"type": "Feature", "geometry": { "type": "Point", "coordinates": [-86.195944,32.339489]}, "properties": { "type": 1, "address":"Vaughn Rd / Bell Rd"}},{"type": "Feature", "geometry": { "type": "Point", "coordinates": [-86.179289,32.338664]}, "properties": { "type": 1, "address":"Vaughn Rd / Taylor Rd"}},{"type": "Feature", "geometry": { "type": "Point", "coordinates": [-86.162269,32.338758]}, "properties": { "type": 1, "address":"Vaughn Rd / Ray Thorington Rd"}},{"type": "Feature", "geometry": { "type": "Point", "coordinates": [-86.196539,32.296875]}, "properties": { "type": 1, "address":"Troy Hwy / Taylor Rd"}}]}