{ "type": "FeatureCollection", "features": [{"type": "Feature", "geometry": { "type": "Point", "coordinates": [-79.758833,43.702644]}, "properties": { "type": 1, "address":"Vodden St E & Kennedy Rd N"}},{"type": "Feature", "geometry": { "type": "Point", "coordinates": [-79.73447,43.709047]}, "properties": { "type": 1, "address":"Queen St E & Laurelcrest St"}},{"type": "Feature", "geometry": { "type": "Point", "coordinates": [-79.733939,43.754417]}, "properties": { "type": 1, "address":"Torbram Rd & Bovaird Dr E"}},{"type": "Feature", "geometry": { "type": "Point", "coordinates": [-79.708847,43.753307]}, "properties": { "type": 1, "address":"Williams Pkwy & Airport Rd"}},{"type": "Feature", "geometry": { "type": "Point", "coordinates": [-79.69583,43.743525]}, "properties": { "type": 1, "address":"Queen St E & Airport Rd"}},{"type": "Feature", "geometry": { "type": "Point", "coordinates": [-79.690522,43.704871]}, "properties": { "type": 1, "address":"Bramalea Rd & Steeles Ave E"}},{"type": "Feature", "geometry": { "type": "Point", "coordinates": [-79.685648,43.735991]}, "properties": { "type": 1, "address":"Airport Rd & Clark Blvd"}},{"type": "Feature", "geometry": { "type": "Point", "coordinates": [-79.648558,43.767111]}, "properties": { "type": 1, "address":"RR-50 & HWY-7"}},{"type": "Feature", "geometry": { "type": "Point", "coordinates": [-79.642497,43.703574]}, "properties": { "type": 1, "address":"RR-7 & Airport Rd"}},{"type": "Feature", "geometry": { "type": "Point", "coordinates": [-79.627257,43.716265]}, "properties": { "type": 1, "address":"Derry Rd E & Rexwood Rd"}},{"type": "Feature", "geometry": { "type": "Point", "coordinates": [-79.478007,43.708697]}, "properties": { "type": 1, "address":"Keele St & Lawrence Ave W"}},{"type": "Feature", "geometry": { "type": "Point", "coordinates": [-79.447589,43.792049]}, "properties": { "type": 1, "address":"Steeles Ave W & Carpenter Rd"}},{"type": "Feature", "geometry": { "type": "Point", "coordinates": [-79.406705,43.744135]}, "properties": { "type": 1, "address":"York Mills Rd & Yonge St"}},{"type": "Feature", "geometry": { "type": "Point", "coordinates": [-79.393613,43.792338]}, "properties": { "type": 1, "address":"Bayview Ave & Cummer Ave"}},{"type": "Feature", "geometry": { "type": "Point", "coordinates": [-79.465504,44.233636]}, "properties": { "type": 1, "address":"The Queensway S & Morton Ave"}},{"type": "Feature", "geometry": { "type": "Point", "coordinates": [-79.500586,43.690106]}, "properties": { "type": 1, "address":"Jane St & Emmett Ave"}},{"type": "Feature", "geometry": { "type": "Point", "coordinates": [-79.542868,43.688629]}, "properties": { "type": 1, "address":"Islington Ave & The Westway"}},{"type": "Feature", "geometry": { "type": "Point", "coordinates": [-79.558643,43.694296]}, "properties": { "type": 1, "address":"Dixon Rd & Kipling Ave"}},{"type": "Feature", "geometry": { "type": "Point", "coordinates": [-79.595539,43.686746]}, "properties": { "type": 1, "address":"Carlingview Dr & Dixon Rd"}},{"type": "Feature", "geometry": { "type": "Point", "coordinates": [-79.482045,43.726698]}, "properties": { "type": 1, "address":"Wilson Ave & Keele St"}},{"type": "Feature", "geometry": { "type": "Point", "coordinates": [-79.453207,43.706998]}, "properties": { "type": 1, "address":"Glencairn Ave & Dufferin St"}},{"type": "Feature", "geometry": { "type": "Point", "coordinates": [-79.4465,43.715615]}, "properties": { "type": 1, "address":"Lawrence Ave W & Marlee Ave"}},{"type": "Feature", "geometry": { "type": "Point", "coordinates": [-79.419064,43.70236]}, "properties": { "type": 1, "address":"Eglinton Ave W & Spadina Rd"}},{"type": "Feature", "geometry": { "type": "Point", "coordinates": [-79.429757,43.719277]}, "properties": { "type": 1, "address":"Bathurst St & Lawrence Ave W"}},{"type": "Feature", "geometry": { "type": "Point", "coordinates": [-79.402189,43.725119]}, "properties": { "type": 1, "address":"Lawrence Ave E & Yonge St"}},{"type": "Feature", "geometry": { "type": "Point", "coordinates": [-79.390156,43.708423]}, "properties": { "type": 1, "address":"Eglinton Ave E & Mt Pleasant Rd"}},{"type": "Feature", "geometry": { "type": "Point", "coordinates": [-79.343618,43.707491]}, "properties": { "type": 1, "address":"Thorncliffe Park Dr & Overlea Blvd"}},{"type": "Feature", "geometry": { "type": "Point", "coordinates": [-79.313487,43.72602]}, "properties": { "type": 1, "address":"Eglinton Ave E & Bermondsey Rd"}},{"type": "Feature", "geometry": { "type": "Point", "coordinates": [-79.302648,43.724734]}, "properties": { "type": 1, "address":"Eglinton Ave E & Eglinton Ave E"}},{"type": "Feature", "geometry": { "type": "Point", "coordinates": [-79.307419,43.712451]}, "properties": { "type": 1, "address":"O'Connor Dr & Bermondsey Rd"}},{"type": "Feature", "geometry": { "type": "Point", "coordinates": [-79.277883,43.729981]}, "properties": { "type": 1, "address":"Eglinton Ave E & Birchmount Rd"}},{"type": "Feature", "geometry": { "type": "Point", "coordinates": [-79.285021,43.721529]}, "properties": { "type": 1, "address":"Comstock Rd & Warden Ave"}},{"type": "Feature", "geometry": { "type": "Point", "coordinates": [-79.241464,43.720869]}, "properties": { "type": 1, "address":"Brimley Rd & St Clair Ave E"}},{"type": "Feature", "geometry": { "type": "Point", "coordinates": [-79.235279,43.757749]}, "properties": { "type": 1, "address":"Bellamy Rd N & Lawrence Ave E"}},{"type": "Feature", "geometry": { "type": "Point", "coordinates": [-79.343447,43.737178]}, "properties": { "type": 1, "address":"Lawrence Ave E & Don Mills Rd"}},{"type": "Feature", "geometry": { "type": "Point", "coordinates": [-79.355948,43.734556]}, "properties": { "type": 1, "address":"Leslie St & Lawrence Ave E"}},{"type": "Feature", "geometry": { "type": "Point", "coordinates": [-79.360002,43.752977]}, "properties": { "type": 1, "address":"York Mills Rd & Leslie St"}},{"type": "Feature", "geometry": { "type": "Point", "coordinates": [-79.438465,43.755495]}, "properties": { "type": 1, "address":"Bathurst St & Sheppard Ave W"}},{"type": "Feature", "geometry": { "type": "Point", "coordinates": [-79.452781,43.733362]}, "properties": { "type": 1, "address":"Billy Bishop Way & Wilson Ave"}},{"type": "Feature", "geometry": { "type": "Point", "coordinates": [-79.456725,43.751668]}, "properties": { "type": 1, "address":"Wilson Heights Blvd & Sheppard Ave W"}},{"type": "Feature", "geometry": { "type": "Point", "coordinates": [-79.486425,43.744823]}, "properties": { "type": 1, "address":"Sheppard Ave W & Keele St"}},{"type": "Feature", "geometry": { "type": "Point", "coordinates": [-79.513659,43.741239]}, "properties": { "type": 1, "address":"Jane St & Spenvalley Dr"}},{"type": "Feature", "geometry": { "type": "Point", "coordinates": [-79.589224,43.741124]}, "properties": { "type": 1, "address":"Finch Ave W & Albion Rd"}},{"type": "Feature", "geometry": { "type": "Point", "coordinates": [-79.600039,43.742934]}, "properties": { "type": 1, "address":"Albion Rd & Silverstone Dr"}},{"type": "Feature", "geometry": { "type": "Point", "coordinates": [-79.625589,43.772118]}, "properties": { "type": 1, "address":"Roybridge Gate & HWY-7"}},{"type": "Feature", "geometry": { "type": "Point", "coordinates": [-79.574804,43.764317]}, "properties": { "type": 1, "address":"Islington Ave & Steeles Ave W"}},{"type": "Feature", "geometry": { "type": "Point", "coordinates": [-79.407157,43.781631]}, "properties": { "type": 1, "address":"Finch Ave E & Willowdale Ave"}},{"type": "Feature", "geometry": { "type": "Point", "coordinates": [-79.386628,43.760591]}, "properties": { "type": 1, "address":"Bayview Ave & Bayview Ave"}},{"type": "Feature", "geometry": { "type": "Point", "coordinates": [-79.305327,43.773092]}, "properties": { "type": 1, "address":"Arkona Dr & Warden Ave"}},{"type": "Feature", "geometry": { "type": "Point", "coordinates": [-79.281113,43.765824]}, "properties": { "type": 1, "address":"Kennedy Rd & Ellesmere Rd"}},{"type": "Feature", "geometry": { "type": "Point", "coordinates": [-79.272998,43.772952]}, "properties": { "type": 1, "address":"Progress Ave & Midland Ave"}},{"type": "Feature", "geometry": { "type": "Point", "coordinates": [-79.188315,43.786594]}, "properties": { "type": 1, "address":"Ellesmere Rd & Military Trl"}},{"type": "Feature", "geometry": { "type": "Point", "coordinates": [-79.146161,43.798934]}, "properties": { "type": 1, "address":"Sheppard Ave E & Kingston Rd"}},{"type": "Feature", "geometry": { "type": "Point", "coordinates": [-79.21766,43.798142]}, "properties": { "type": 1, "address":"Sheppard Ave E & Neilson Rd"}},{"type": "Feature", "geometry": { "type": "Point", "coordinates": [-79.234962,43.794659]}, "properties": { "type": 1, "address":"Sheppard Ave E & Malvern St"}},{"type": "Feature", "geometry": { "type": "Point", "coordinates": [-79.316936,43.821405]}, "properties": { "type": 1, "address":"Birchmount Rd & Steeles Ave E"}},{"type": "Feature", "geometry": { "type": "Point", "coordinates": [-79.321006,43.806342]}, "properties": { "type": 1, "address":"McNicoll Ave & Warden Ave"}},{"type": "Feature", "geometry": { "type": "Point", "coordinates": [-79.42933,43.796031]}, "properties": { "type": 1, "address":"Steeles Ave W & Hilda Ave"}},{"type": "Feature", "geometry": { "type": "Point", "coordinates": [-79.626144,43.791414]}, "properties": { "type": 1, "address":"HWY-27 & Langstaff Rd"}},{"type": "Feature", "geometry": { "type": "Point", "coordinates": [-79.451041,43.829893]}, "properties": { "type": 1, "address":"Bathurst St & York Regional Rd 7 & Hwy 7"}},{"type": "Feature", "geometry": { "type": "Point", "coordinates": [-79.425219,43.837365]}, "properties": { "type": 1, "address":"Hwy 7 & Yonge St"}},{"type": "Feature", "geometry": { "type": "Point", "coordinates": [-79.287192,43.828263]}, "properties": { "type": 1, "address":"Brimley Rd & Steeles Ave E"}},{"type": "Feature", "geometry": { "type": "Point", "coordinates": [-79.291874,43.865432]}, "properties": { "type": 1, "address":"Bullock Dr & HWY-7"}},{"type": "Feature", "geometry": { "type": "Point", "coordinates": [-79.239583,43.8977]}, "properties": { "type": 1, "address":"16th Ave & 9th Line"}},{"type": "Feature", "geometry": { "type": "Point", "coordinates": [-79.318852,43.89758]}, "properties": { "type": 1, "address":"Kennedy Rd & Major MacKenzie Dr E"}},{"type": "Feature", "geometry": { "type": "Point", "coordinates": [-79.293226,43.903604]}, "properties": { "type": 1, "address":"McCowan Rd & Major MacKenzie Dr E"}},{"type": "Feature", "geometry": { "type": "Point", "coordinates": [-79.481444,43.938934]}, "properties": { "type": 1, "address":"Bathurst St & King Rd"}},{"type": "Feature", "geometry": { "type": "Point", "coordinates": [-79.505026,43.933962]}, "properties": { "type": 1, "address":"Dufferin St & King Rd"}},{"type": "Feature", "geometry": { "type": "Point", "coordinates": [-79.379147,43.941855]}, "properties": { "type": 1, "address":"Woodbine Ave & Stouffville Rd"}},{"type": "Feature", "geometry": { "type": "Point", "coordinates": [-79.467555,43.99965]}, "properties": { "type": 1, "address":"Yonge St & Wellington St E"}},{"type": "Feature", "geometry": { "type": "Point", "coordinates": [-79.506244,44.049189]}, "properties": { "type": 1, "address":"Davis Dr W & RR-38"}},{"type": "Feature", "geometry": { "type": "Point", "coordinates": [-79.484827,44.072903]}, "properties": { "type": 1, "address":"RR-19 & HWY-11"}},{"type": "Feature", "geometry": { "type": "Point", "coordinates": [-79.407478,44.071146]}, "properties": { "type": 1, "address":"Woodbine Ave & Davis Dr"}},{"type": "Feature", "geometry": { "type": "Point", "coordinates": [-79.439013,44.064172]}, "properties": { "type": 1, "address":"Davis Dr & Ashton Rd"}},{"type": "Feature", "geometry": { "type": "Point", "coordinates": [-79.436614,44.084198]}, "properties": { "type": 1, "address":"RR-12 & Green Ln E"}}]}