{ "type": "FeatureCollection", "features": [{"type": "Feature", "geometry": { "type": "Point", "coordinates": [-87.571042,33.209078]}, "properties": { "type": 1, "address":"Lurleen B Wallace Blvd S / University Blvd"}},{"type": "Feature", "geometry": { "type": "Point", "coordinates": [-87.528812,33.197397]}, "properties": { "type": 1, "address":"6th Ave E / 15th St E"}},{"type": "Feature", "geometry": { "type": "Point", "coordinates": [-87.525392,33.167973]}, "properties": { "type": 1, "address":"McFarland Blvd E / Skyland Blvd E"}},{"type": "Feature", "geometry": { "type": "Point", "coordinates": [-87.52456,33.175259]}, "properties": { "type": 1, "address":"37th St E / McFarland Blvd E"}},{"type": "Feature", "geometry": { "type": "Point", "coordinates": [-87.569699,33.209457]}, "properties": { "type": 1, "address":"University Blvd / Lurleen B Wallace Blvd N"}},{"type": "Feature", "geometry": { "type": "Point", "coordinates": [-87.550087,33.165058]}, "properties": { "type": 1, "address":"Skyland Blvd / US Hwy 11"}},{"type": "Feature", "geometry": { "type": "Point", "coordinates": [-87.046579,32.432769]}, "properties": { "type": 1, "address":"Bell Rd / Highland Ave"}},{"type": "Feature", "geometry": { "type": "Point", "coordinates": [-87.014373,32.431368]}, "properties": { "type": 1, "address":"Range St / E Highland Ave"}},{"type": "Feature", "geometry": { "type": "Point", "coordinates": [-86.911497,33.463453]}, "properties": { "type": 1, "address":"by Williams Sr Dr / Bessemer Super Hwy"}},{"type": "Feature", "geometry": { "type": "Point", "coordinates": [-85.404937,32.622639]}, "properties": { "type": 1, "address":"Gateway Dr / Frederick Rd"}},{"type": "Feature", "geometry": { "type": "Point", "coordinates": [-85.366426,32.66522]}, "properties": { "type": 1, "address":"Samford Ave / Lafayette Pkwy"}},{"type": "Feature", "geometry": { "type": "Point", "coordinates": [-86.300099,32.368385]}, "properties": { "type": 1, "address":"S Union St / E South St"}},{"type": "Feature", "geometry": { "type": "Point", "coordinates": [-86.271009,32.372416]}, "properties": { "type": 1, "address":"Highland Ave / Ann St"}},{"type": "Feature", "geometry": { "type": "Point", "coordinates": [-86.26085,32.3414]}, "properties": { "type": 1, "address":"Carter Hill Rd / Crawford St"}},{"type": "Feature", "geometry": { "type": "Point", "coordinates": [-86.257387,32.385396]}, "properties": { "type": 1, "address":"Coliseum Blvd / Atlanta Hwy"}},{"type": "Feature", "geometry": { "type": "Point", "coordinates": [-86.246196,32.383114]}, "properties": { "type": 1, "address":"Atlanta Hwy / Perry Hill Rd"}},{"type": "Feature", "geometry": { "type": "Point", "coordinates": [-86.223948,32.34421]}, "properties": { "type": 1, "address":"Vaughn Rd / Eastern Blvd"}},{"type": "Feature", "geometry": { "type": "Point", "coordinates": [-86.212456,32.399829]}, "properties": { "type": 1, "address":"Plantation Way / US Hwy 231"}},{"type": "Feature", "geometry": { "type": "Point", "coordinates": [-85.409738,32.638107]}, "properties": { "type": 1, "address":"Pepperell Pkwy / Birmingham Hwy"}},{"type": "Feature", "geometry": { "type": "Point", "coordinates": [-85.402944,32.617981]}, "properties": { "type": 1, "address":"Interstate Dr / Gateway Dr"}},{"type": "Feature", "geometry": { "type": "Point", "coordinates": [-86.209529,32.37093]}, "properties": { "type": 1, "address":"Shirley Ln / Eastern Blvd"}},{"type": "Feature", "geometry": { "type": "Point", "coordinates": [-86.215254,32.359856]}, "properties": { "type": 1, "address":"Carmichael Rd / Eastern Blvd"}},{"type": "Feature", "geometry": { "type": "Point", "coordinates": [-86.238317,32.323573]}, "properties": { "type": 1, "address":"Troy Hwy / Virginia Loop Rd"}},{"type": "Feature", "geometry": { "type": "Point", "coordinates": [-86.24123,32.327159]}, "properties": { "type": 1, "address":"West Blvd / Troy Hwy"}},{"type": "Feature", "geometry": { "type": "Point", "coordinates": [-86.264757,32.327107]}, "properties": { "type": 1, "address":"Woodley Rd / West Blvd"}},{"type": "Feature", "geometry": { "type": "Point", "coordinates": [-86.195944,32.339489]}, "properties": { "type": 1, "address":"Vaughn Rd / Bell Rd"}},{"type": "Feature", "geometry": { "type": "Point", "coordinates": [-86.179289,32.338664]}, "properties": { "type": 1, "address":"Vaughn Rd / Taylor Rd"}},{"type": "Feature", "geometry": { "type": "Point", "coordinates": [-86.162269,32.338758]}, "properties": { "type": 1, "address":"Vaughn Rd / Ray Thorington Rd"}},{"type": "Feature", "geometry": { "type": "Point", "coordinates": [-86.196539,32.296875]}, "properties": { "type": 1, "address":"Troy Hwy / Taylor Rd"}},{"type": "Feature", "geometry": { "type": "Point", "coordinates": [-86.34985,32.312364]}, "properties": { "type": 1, "address":"US Hwy 31 / Selma Hwy"}},{"type": "Feature", "geometry": { "type": "Point", "coordinates": [-86.34983,32.31134]}, "properties": { "type": 1, "address":"Mobile Hwy / Selma Hwy"}}]}