{ "type": "FeatureCollection", "features": [{"type": "Feature", "geometry": { "type": "Point", "coordinates": [-119.018928,35.353975]}, "properties": { "type": 1, "address":"S Chester Ave / Brundage Ln"}},{"type": "Feature", "geometry": { "type": "Point", "coordinates": [-118.949759,35.392251]}, "properties": { "type": 1, "address":"Oswell St / Bernard St"}},{"type": "Feature", "geometry": { "type": "Point", "coordinates": [-119.091815,35.361964]}, "properties": { "type": 1, "address":"Coffee Rd / Truxtun Ave"}},{"type": "Feature", "geometry": { "type": "Point", "coordinates": [-119.061149,35.354219]}, "properties": { "type": 1, "address":"New Stine Rd / Stockdale Hwy"}},{"type": "Feature", "geometry": { "type": "Point", "coordinates": [-119.043412,35.339503]}, "properties": { "type": 1, "address":"Ming Ave / S Real Rd"}},{"type": "Feature", "geometry": { "type": "Point", "coordinates": [-119.038954,35.317724]}, "properties": { "type": 1, "address":"Wible Rd / White Ln"}},{"type": "Feature", "geometry": { "type": "Point", "coordinates": [-119.037144,35.339465]}, "properties": { "type": 1, "address":"Ming Ave / Valley Plz"}},{"type": "Feature", "geometry": { "type": "Point", "coordinates": [-119.038755,35.368617]}, "properties": { "type": 1, "address":"Oak St / California Ave"}},{"type": "Feature", "geometry": { "type": "Point", "coordinates": [-118.597188,34.193762]}, "properties": { "type": 1, "address":"Vanowen St / Canoga Ave"}},{"type": "Feature", "geometry": { "type": "Point", "coordinates": [-118.597362,34.208314]}, "properties": { "type": 1, "address":"Saticoy St / Canoga Ave"}},{"type": "Feature", "geometry": { "type": "Point", "coordinates": [-118.597384,34.235458]}, "properties": { "type": 1, "address":"Nordhoff St / Canoga Ave"}},{"type": "Feature", "geometry": { "type": "Point", "coordinates": [-118.527291,34.180542]}, "properties": { "type": 1, "address":"Lindley Ave / Topham St"}},{"type": "Feature", "geometry": { "type": "Point", "coordinates": [-118.483646,34.186503]}, "properties": { "type": 1, "address":"Woodley Ave / Victory Blvd"}},{"type": "Feature", "geometry": { "type": "Point", "coordinates": [-118.597246,34.201021]}, "properties": { "type": 1, "address":"Sherman Way / Canoga Ave"}},{"type": "Feature", "geometry": { "type": "Point", "coordinates": [-118.597397,34.228205]}, "properties": { "type": 1, "address":"Parthenia St / Canoga Ave"}},{"type": "Feature", "geometry": { "type": "Point", "coordinates": [-118.579738,34.188636]}, "properties": { "type": 1, "address":"Mason Ave / Victory Blvd"}},{"type": "Feature", "geometry": { "type": "Point", "coordinates": [-118.540744,34.379778]}, "properties": { "type": 1, "address":"Lyons Ave / Orchard Village Rd"}},{"type": "Feature", "geometry": { "type": "Point", "coordinates": [-118.537144,34.42717]}, "properties": { "type": 1, "address":"Bouquet Canyon Rd / Newhall Ranch Rd"}},{"type": "Feature", "geometry": { "type": "Point", "coordinates": [-118.518495,34.180315]}, "properties": { "type": 1, "address":"N White Oak Ave / Oxnard St"}},{"type": "Feature", "geometry": { "type": "Point", "coordinates": [-118.430324,33.999451]}, "properties": { "type": 1, "address":"Washington Pl / S Centinela Ave"}},{"type": "Feature", "geometry": { "type": "Point", "coordinates": [-118.408911,34.059711]}, "properties": { "type": 1, "address":"S Spalding Dr / W Olympic Blvd"}},{"type": "Feature", "geometry": { "type": "Point", "coordinates": [-118.397888,33.997677]}, "properties": { "type": 1, "address":"Sepulveda Blvd / Machado Rd"}},{"type": "Feature", "geometry": { "type": "Point", "coordinates": [-118.395411,33.98861]}, "properties": { "type": 1, "address":"Sepulveda Blvd / Slauson Ave"}},{"type": "Feature", "geometry": { "type": "Point", "coordinates": [-118.388,34.016746]}, "properties": { "type": 1, "address":"Jefferson Blvd / Duquesne Ave"}},{"type": "Feature", "geometry": { "type": "Point", "coordinates": [-118.383926,34.029739]}, "properties": { "type": 1, "address":"Helms Ave / Washington Blvd"}},{"type": "Feature", "geometry": { "type": "Point", "coordinates": [-118.383712,34.077182]}, "properties": { "type": 1, "address":"N Robertson Blvd / W Beverly Blvd"}},{"type": "Feature", "geometry": { "type": "Point", "coordinates": [-118.380561,33.988985]}, "properties": { "type": 1, "address":"W Slauson Ave / Buckingham Pkwy"}},{"type": "Feature", "geometry": { "type": "Point", "coordinates": [-118.376151,34.062675]}, "properties": { "type": 1, "address":"Gregory Way / S la Cienega Blvd"}},{"type": "Feature", "geometry": { "type": "Point", "coordinates": [-118.376523,34.081949]}, "properties": { "type": 1, "address":"W Melrose Ave / N la Cienega Blvd"}},{"type": "Feature", "geometry": { "type": "Point", "coordinates": [-118.376356,34.094375]}, "properties": { "type": 1, "address":"W Sunset Blvd / N Miller Dr"}},{"type": "Feature", "geometry": { "type": "Point", "coordinates": [-118.378975,34.16852]}, "properties": { "type": 1, "address":"Tujunga Ave / W Chandler Blvd"}},{"type": "Feature", "geometry": { "type": "Point", "coordinates": [-118.37433,34.032491]}, "properties": { "type": 1, "address":"S la Cienega Blvd / Washington Blvd"}},{"type": "Feature", "geometry": { "type": "Point", "coordinates": [-118.335084,34.022432]}, "properties": { "type": 1, "address":"Crenshaw Blvd / Exposition Pl"}},{"type": "Feature", "geometry": { "type": "Point", "coordinates": [-118.308873,34.018336]}, "properties": { "type": 1, "address":"S Western Ave / Exposition Blvd"}},{"type": "Feature", "geometry": { "type": "Point", "coordinates": [-118.285155,33.872562]}, "properties": { "type": 5, "address":""}},{"type": "Feature", "geometry": { "type": "Point", "coordinates": [-118.286614,33.901704]}, "properties": { "type": 5, "address":""}},{"type": "Feature", "geometry": { "type": "Point", "coordinates": [-118.279662,33.945504]}, "properties": { "type": 5, "address":""}},{"type": "Feature", "geometry": { "type": "Point", "coordinates": [-118.28082,34.013776]}, "properties": { "type": 5, "address":""}},{"type": "Feature", "geometry": { "type": "Point", "coordinates": [-118.270878,34.03386]}, "properties": { "type": 1, "address":"W Washington Blvd / S Flower St"}},{"type": "Feature", "geometry": { "type": "Point", "coordinates": [-118.269921,34.035343]}, "properties": { "type": 1, "address":"W 18th St / S Flower St"}},{"type": "Feature", "geometry": { "type": "Point", "coordinates": [-118.237763,34.054828]}, "properties": { "type": 5, "address":""}},{"type": "Feature", "geometry": { "type": "Point", "coordinates": [-118.238153,34.051191]}, "properties": { "type": 1, "address":"E Temple St / N Alameda St"}},{"type": "Feature", "geometry": { "type": "Point", "coordinates": [-118.227747,34.047747]}, "properties": { "type": 1, "address":"N Mission Rd / E 1st St"}},{"type": "Feature", "geometry": { "type": "Point", "coordinates": [-118.211551,33.930511]}, "properties": { "type": 1, "address":"Imperial Hwy / Long Beach Blvd"}},{"type": "Feature", "geometry": { "type": "Point", "coordinates": [-118.195014,34.037168]}, "properties": { "type": 1, "address":"N Lorena St / E 1st St"}},{"type": "Feature", "geometry": { "type": "Point", "coordinates": [-118.186976,34.033304]}, "properties": { "type": 1, "address":"E 3rd St / S Rowan Ave"}},{"type": "Feature", "geometry": { "type": "Point", "coordinates": [-118.18354,33.93074]}, "properties": { "type": 1, "address":"Imperial Hwy / Atlantic Ave"}},{"type": "Feature", "geometry": { "type": "Point", "coordinates": [-118.180171,34.033333]}, "properties": { "type": 1, "address":"S Downey Rd / E 3rd St"}},{"type": "Feature", "geometry": { "type": "Point", "coordinates": [-118.173895,34.033351]}, "properties": { "type": 1, "address":"E 3rd St / S Eastern Ave"}},{"type": "Feature", "geometry": { "type": "Point", "coordinates": [-118.169153,34.033293]}, "properties": { "type": 1, "address":"E 3rd St / S Ford Blvd"}},{"type": "Feature", "geometry": { "type": "Point", "coordinates": [-118.163837,34.061489]}, "properties": { "type": 5, "address":""}},{"type": "Feature", "geometry": { "type": "Point", "coordinates": [-118.119303,33.995138]}, "properties": { "type": 1, "address":"S Greenwood Ave / E Washington Blvd"}},{"type": "Feature", "geometry": { "type": "Point", "coordinates": [-118.107914,34.071439]}, "properties": { "type": 5, "address":""}},{"type": "Feature", "geometry": { "type": "Point", "coordinates": [-118.090474,34.034186]}, "properties": { "type": 1, "address":"Town Center Dr / Paramount Blvd"}},{"type": "Feature", "geometry": { "type": "Point", "coordinates": [-118.072724,34.072008]}, "properties": { "type": 5, "address":""}},{"type": "Feature", "geometry": { "type": "Point", "coordinates": [-118.063833,33.873165]}, "properties": { "type": 1, "address":"Artesia Blvd / Bloomfield Ave"}},{"type": "Feature", "geometry": { "type": "Point", "coordinates": [-118.003287,34.064329]}, "properties": { "type": 5, "address":""}},{"type": "Feature", "geometry": { "type": "Point", "coordinates": [-117.989101,34.079705]}, "properties": { "type": 1, "address":"Ramona Blvd / Francisquito Ave"}},{"type": "Feature", "geometry": { "type": "Point", "coordinates": [-117.671315,33.8698]}, "properties": { "type": 5, "address":""}},{"type": "Feature", "geometry": { "type": "Point", "coordinates": [-117.875828,33.849897]}, "properties": { "type": 5, "address":""}},{"type": "Feature", "geometry": { "type": "Point", "coordinates": [-118.597436,34.219799]}, "properties": { "type": 1, "address":"Roscoe Blvd / Canoga Ave"}},{"type": "Feature", "geometry": { "type": "Point", "coordinates": [-118.559847,34.413185]}, "properties": { "type": 1, "address":"Valencia Blvd / McBean Pkwy"}},{"type": "Feature", "geometry": { "type": "Point", "coordinates": [-118.562726,34.419757]}, "properties": { "type": 1, "address":"State Rte 126 / McBean Pkwy"}},{"type": "Feature", "geometry": { "type": "Point", "coordinates": [-118.531409,34.433174]}, "properties": { "type": 1, "address":"Seco Canyon Rd / Bouquet Canyon Rd"}},{"type": "Feature", "geometry": { "type": "Point", "coordinates": [-118.372173,33.901828]}, "properties": { "type": 1, "address":"W Rosecrans Ave / Hindry Ave"}},{"type": "Feature", "geometry": { "type": "Point", "coordinates": [-118.361461,34.09085]}, "properties": { "type": 1, "address":"N Fairfax Ave / W Santa Monica Blvd"}},{"type": "Feature", "geometry": { "type": "Point", "coordinates": [-118.365948,34.094413]}, "properties": { "type": 1, "address":"W Fountain Ave / N Crescent Heights Blvd"}},{"type": "Feature", "geometry": { "type": "Point", "coordinates": [-118.28052,33.928628]}, "properties": { "type": 5, "address":""}},{"type": "Feature", "geometry": { "type": "Point", "coordinates": [-118.280691,33.9601]}, "properties": { "type": 5, "address":""}},{"type": "Feature", "geometry": { "type": "Point", "coordinates": [-118.268851,34.037008]}, "properties": { "type": 1, "address":"Venice Blvd / S Flower St"}},{"type": "Feature", "geometry": { "type": "Point", "coordinates": [-118.243376,33.992986]}, "properties": { "type": 1, "address":"E 55th St / Long Beach Ave W"}},{"type": "Feature", "geometry": { "type": "Point", "coordinates": [-118.243221,34.00392]}, "properties": { "type": 1, "address":"E Vernon Ave / Long Beach Ave W"}},{"type": "Feature", "geometry": { "type": "Point", "coordinates": [-118.162035,33.985862]}, "properties": { "type": 1, "address":"S Eastern Ave / E Slauson Ave"}},{"type": "Feature", "geometry": { "type": "Point", "coordinates": [-118.13401,34.022442]}, "properties": { "type": 1, "address":"N Garfield Ave / W Beverly Blvd"}},{"type": "Feature", "geometry": { "type": "Point", "coordinates": [-118.129969,34.032754]}, "properties": { "type": 1, "address":"N Garfield Ave / Via Campo"}},{"type": "Feature", "geometry": { "type": "Point", "coordinates": [-118.117278,34.071695]}, "properties": { "type": 5, "address":""}},{"type": "Feature", "geometry": { "type": "Point", "coordinates": [-118.105969,34.017168]}, "properties": { "type": 1, "address":"W Beverly Blvd / N Montebello Blvd"}},{"type": "Feature", "geometry": { "type": "Point", "coordinates": [-118.099074,34.071724]}, "properties": { "type": 5, "address":""}},{"type": "Feature", "geometry": { "type": "Point", "coordinates": [-118.028864,34.068027]}, "properties": { "type": 5, "address":""}},{"type": "Feature", "geometry": { "type": "Point", "coordinates": [-117.968278,34.064295]}, "properties": { "type": 1, "address":"Francisquito Ave / Puente Ave"}},{"type": "Feature", "geometry": { "type": "Point", "coordinates": [-117.963737,34.068598]}, "properties": { "type": 1, "address":"Dalewood St / Puente Ave"}},{"type": "Feature", "geometry": { "type": "Point", "coordinates": [-117.881315,34.078922]}, "properties": { "type": 1, "address":"E Rowland St / N Barranca Ave"}},{"type": "Feature", "geometry": { "type": "Point", "coordinates": [-117.872529,34.086174]}, "properties": { "type": 1, "address":"E Badillo St / S Grand Ave"}},{"type": "Feature", "geometry": { "type": "Point", "coordinates": [-118.466171,34.180548]}, "properties": { "type": 1, "address":"Sepulveda Blvd / Oxnard St"}},{"type": "Feature", "geometry": { "type": "Point", "coordinates": [-118.398226,34.087513]}, "properties": { "type": 1, "address":"N Hillcrest Rd / Sunset Blvd"}},{"type": "Feature", "geometry": { "type": "Point", "coordinates": [-118.389814,34.059383]}, "properties": { "type": 1, "address":"W Olympic Blvd / S Doheny Dr"}},{"type": "Feature", "geometry": { "type": "Point", "coordinates": [-118.361545,34.094459]}, "properties": { "type": 1, "address":"N Fairfax Ave / W Fountain Ave"}},{"type": "Feature", "geometry": { "type": "Point", "coordinates": [-118.344086,34.094334]}, "properties": { "type": 1, "address":"N la Brea Ave / W Fountain Ave"}},{"type": "Feature", "geometry": { "type": "Point", "coordinates": [-118.286013,33.916378]}, "properties": { "type": 5, "address":""}},{"type": "Feature", "geometry": { "type": "Point", "coordinates": [-118.281078,34.003637]}, "properties": { "type": 5, "address":""}},{"type": "Feature", "geometry": { "type": "Point", "coordinates": [-118.274907,34.027677]}, "properties": { "type": 1, "address":"W Adams Blvd / S Flower St"}},{"type": "Feature", "geometry": { "type": "Point", "coordinates": [-118.243182,34.00809]}, "properties": { "type": 1, "address":"E 41st St / Long Beach Ave W"}},{"type": "Feature", "geometry": { "type": "Point", "coordinates": [-118.243044,34.018759]}, "properties": { "type": 1, "address":"E 20th St / Long Beach Ave W"}},{"type": "Feature", "geometry": { "type": "Point", "coordinates": [-118.099576,33.858333]}, "properties": { "type": 1, "address":"Studebaker Rd / South St"}},{"type": "Feature", "geometry": { "type": "Point", "coordinates": [-118.588549,34.188693]}, "properties": { "type": 1, "address":"de Soto Ave / Deering Cir"}},{"type": "Feature", "geometry": { "type": "Point", "coordinates": [-118.50111,34.186485]}, "properties": { "type": 1, "address":"N Balboa Blvd / Balboa Blvd"}},{"type": "Feature", "geometry": { "type": "Point", "coordinates": [-118.438212,33.995243]}, "properties": { "type": 1, "address":"Washington Blvd / Beethoven St"}},{"type": "Feature", "geometry": { "type": "Point", "coordinates": [-118.431247,34.180079]}, "properties": { "type": 1, "address":"Woodman Ave / Oxnard St"}},{"type": "Feature", "geometry": { "type": "Point", "coordinates": [-118.414631,34.0042]}, "properties": { "type": 1, "address":"Washington Blvd / Sawtelle Blvd"}},{"type": "Feature", "geometry": { "type": "Point", "coordinates": [-118.39906,34.06706]}, "properties": { "type": 1, "address":"Wilshire Blvd / N Beverly Dr"}},{"type": "Feature", "geometry": { "type": "Point", "coordinates": [-118.393496,34.004192]}, "properties": { "type": 1, "address":"Overland Ave / Jefferson Blvd"}},{"type": "Feature", "geometry": { "type": "Point", "coordinates": [-118.352599,33.930941]}, "properties": { "type": 1, "address":"W Imperial Hwy / Hawthorne Blvd"}},{"type": "Feature", "geometry": { "type": "Point", "coordinates": [-118.304521,34.018306]}, "properties": { "type": 1, "address":"S Denker Ave / Exposition Blvd"}},{"type": "Feature", "geometry": { "type": "Point", "coordinates": [-118.291537,34.018253]}, "properties": { "type": 1, "address":"S Vermont Ave / Exposition Blvd"}},{"type": "Feature", "geometry": { "type": "Point", "coordinates": [-118.280648,33.982289]}, "properties": { "type": 5, "address":""}},{"type": "Feature", "geometry": { "type": "Point", "coordinates": [-118.280605,33.988856]}, "properties": { "type": 5, "address":""}},{"type": "Feature", "geometry": { "type": "Point", "coordinates": [-118.27874,34.021382]}, "properties": { "type": 1, "address":"W Jefferson Blvd / S Flower St"}},{"type": "Feature", "geometry": { "type": "Point", "coordinates": [-118.273073,34.030185]}, "properties": { "type": 1, "address":"W 23rd St / S Flower St"}},{"type": "Feature", "geometry": { "type": "Point", "coordinates": [-118.243276,33.999381]}, "properties": { "type": 1, "address":"E 48th Pl / E Long Beach Ave"}},{"type": "Feature", "geometry": { "type": "Point", "coordinates": [-118.162146,34.033354]}, "properties": { "type": 1, "address":"E 3rd St / S Mednik Ave"}},{"type": "Feature", "geometry": { "type": "Point", "coordinates": [-118.137149,33.987927]}, "properties": { "type": 1, "address":"Telegraph Rd / Garfield Ave"}},{"type": "Feature", "geometry": { "type": "Point", "coordinates": [-118.126796,33.975815]}, "properties": { "type": 1, "address":"E Slauson Ave / Gage Ave"}},{"type": "Feature", "geometry": { "type": "Point", "coordinates": [-118.05324,34.07215]}, "properties": { "type": 5, "address":""}},{"type": "Feature", "geometry": { "type": "Point", "coordinates": [-117.952366,34.079287]}, "properties": { "type": 1, "address":"Pacific Ave / Puente Ave"}},{"type": "Feature", "geometry": { "type": "Point", "coordinates": [-117.907727,34.095731]}, "properties": { "type": 1, "address":"W Cypress St / N Azusa Ave"}},{"type": "Feature", "geometry": { "type": "Point", "coordinates": [-118.47214,34.415713]}, "properties": { "type": 1, "address":"Soledad Canyon Rd / Whites Canyon Rd"}},{"type": "Feature", "geometry": { "type": "Point", "coordinates": [-118.430105,34.179402]}, "properties": { "type": 1, "address":"Oxnard St / Buffalo Ave"}},{"type": "Feature", "geometry": { "type": "Point", "coordinates": [-118.414615,34.067079]}, "properties": { "type": 1, "address":"Wilshire Blvd / N Whittier Dr"}},{"type": "Feature", "geometry": { "type": "Point", "coordinates": [-118.395471,33.999984]}, "properties": { "type": 1, "address":"Jefferson Blvd / Cota St"}},{"type": "Feature", "geometry": { "type": "Point", "coordinates": [-118.352583,33.916406]}, "properties": { "type": 1, "address":"W el Segundo Blvd / Hawthorne Blvd"}},{"type": "Feature", "geometry": { "type": "Point", "coordinates": [-118.278031,34.020874]}, "properties": { "type": 5, "address":""}},{"type": "Feature", "geometry": { "type": "Point", "coordinates": [-118.25741,34.027713]}, "properties": { "type": 1, "address":"S San Pedro St / E Washington Blvd"}},{"type": "Feature", "geometry": { "type": "Point", "coordinates": [-118.158351,34.009431]}, "properties": { "type": 1, "address":"Telegraph Rd / S Atlantic Blvd"}},{"type": "Feature", "geometry": { "type": "Point", "coordinates": [-118.14115,34.071298]}, "properties": { "type": 5, "address":""}},{"type": "Feature", "geometry": { "type": "Point", "coordinates": [-117.960353,34.071803]}, "properties": { "type": 1, "address":"Merced Ave / Puente Ave"}},{"type": "Feature", "geometry": { "type": "Point", "coordinates": [-118.394767,33.983489]}, "properties": { "type": 1, "address":"Sepulveda Blvd / Green Valley Cir"}},{"type": "Feature", "geometry": { "type": "Point", "coordinates": [-118.300152,34.018275]}, "properties": { "type": 1, "address":"S Normandie Ave / Exposition Blvd"}},{"type": "Feature", "geometry": { "type": "Point", "coordinates": [-118.081907,34.07215]}, "properties": { "type": 5, "address":""}},{"type": "Feature", "geometry": { "type": "Point", "coordinates": [-118.090866,33.858399]}, "properties": { "type": 1, "address":"Gridley Rd / South St"}},{"type": "Feature", "geometry": { "type": "Point", "coordinates": [-118.557558,34.431384]}, "properties": { "type": 1, "address":"McBean Pkwy / Newhall Ranch Rd"}},{"type": "Feature", "geometry": { "type": "Point", "coordinates": [-118.536011,34.18029]}, "properties": { "type": 1, "address":"Reseda Blvd / Oxnard St"}},{"type": "Feature", "geometry": { "type": "Point", "coordinates": [-118.40565,34.059696]}, "properties": { "type": 1, "address":"W Olympic Blvd / S Roxbury Dr"}},{"type": "Feature", "geometry": { "type": "Point", "coordinates": [-118.344072,34.09071]}, "properties": { "type": 1, "address":"W Santa Monica Blvd / N la Brea Ave"}},{"type": "Feature", "geometry": { "type": "Point", "coordinates": [-117.964811,34.085543]}, "properties": { "type": 1, "address":"Ramona Pkwy / Baldwin Park Blvd"}},{"type": "Feature", "geometry": { "type": "Point", "coordinates": [-119.266439,34.273607]}, "properties": { "type": 1, "address":"E Thompson Blvd / S Seaward Ave"}},{"type": "Feature", "geometry": { "type": "Point", "coordinates": [-119.246025,34.264983]}, "properties": { "type": 1, "address":"S Mills Rd / E Main St"}},{"type": "Feature", "geometry": { "type": "Point", "coordinates": [-119.247748,34.27313]}, "properties": { "type": 1, "address":"N Mills Rd / Telegraph Rd"}},{"type": "Feature", "geometry": { "type": "Point", "coordinates": [-119.221259,34.190356]}, "properties": { "type": 1, "address":"W Wooley Rd / Victoria Ave"}},{"type": "Feature", "geometry": { "type": "Point", "coordinates": [-119.216064,34.285041]}, "properties": { "type": 1, "address":"N Victoria Ave / Foothill Rd"}},{"type": "Feature", "geometry": { "type": "Point", "coordinates": [-119.210415,34.255789]}, "properties": { "type": 1, "address":"S Victoria Ave / Moon Dr"}},{"type": "Feature", "geometry": { "type": "Point", "coordinates": [-119.212414,34.265387]}, "properties": { "type": 1, "address":"W Telephone Rd / S Victoria Ave"}},{"type": "Feature", "geometry": { "type": "Point", "coordinates": [-119.194777,34.197663]}, "properties": { "type": 1, "address":"S Ventura Rd / W 5th St"}},{"type": "Feature", "geometry": { "type": "Point", "coordinates": [-119.158295,34.218883]}, "properties": { "type": 1, "address":"E Gonzales Rd / N Rose Ave"}},{"type": "Feature", "geometry": { "type": "Point", "coordinates": [-119.293118,34.278278]}, "properties": { "type": 1, "address":"E Thompson Blvd / S California St"}},{"type": "Feature", "geometry": { "type": "Point", "coordinates": [-119.214997,34.244111]}, "properties": { "type": 1, "address":"Victoria Ave / Olivas Park Dr"}},{"type": "Feature", "geometry": { "type": "Point", "coordinates": [-119.165354,34.218968]}, "properties": { "type": 1, "address":"E Gonzales Rd / Snow Ave"}},{"type": "Feature", "geometry": { "type": "Point", "coordinates": [-119.221488,34.175808]}, "properties": { "type": 1, "address":"W Channel Islands Blvd / Victoria Ave"}},{"type": "Feature", "geometry": { "type": "Point", "coordinates": [-119.194552,34.219272]}, "properties": { "type": 1, "address":"W Gonzales Rd / N Ventura Rd"}},{"type": "Feature", "geometry": { "type": "Point", "coordinates": [-119.211526,34.261058]}, "properties": { "type": 1, "address":"S Victoria Ave / Ralston St"}},{"type": "Feature", "geometry": { "type": "Point", "coordinates": [-119.17757,34.17342]}, "properties": { "type": 1, "address":"Saviers Rd / W Channel Islands Blvd"}},{"type": "Feature", "geometry": { "type": "Point", "coordinates": [-119.15974,34.202617]}, "properties": { "type": 1, "address":"E 1st St / S Rose Ave"}},{"type": "Feature", "geometry": { "type": "Point", "coordinates": [-119.246503,34.267309]}, "properties": { "type": 1, "address":"S Mills Rd / Dean Dr"}},{"type": "Feature", "geometry": { "type": "Point", "coordinates": [-119.248976,34.266194]}, "properties": { "type": 1, "address":"Lemon Grove Ave / E Main St"}},{"type": "Feature", "geometry": { "type": "Point", "coordinates": [-119.24434,34.264537]}, "properties": { "type": 1, "address":"Ventura Fwy / E Main St"}},{"type": "Feature", "geometry": { "type": "Point", "coordinates": [-119.226517,34.276261]}, "properties": { "type": 1, "address":"Telegraph Rd / Day Rd"}},{"type": "Feature", "geometry": { "type": "Point", "coordinates": [-119.214657,34.278008]}, "properties": { "type": 1, "address":"Telegraph Rd / N Victoria Ave"}},{"type": "Feature", "geometry": { "type": "Point", "coordinates": [-119.21171,34.251491]}, "properties": { "type": 1, "address":"Victoria Ave / Valentine Rd"}},{"type": "Feature", "geometry": { "type": "Point", "coordinates": [-119.194785,34.246919]}, "properties": { "type": 1, "address":"Northbank Dr / Johnson Dr"}},{"type": "Feature", "geometry": { "type": "Point", "coordinates": [-119.19754,34.254582]}, "properties": { "type": 1, "address":"Bristol Rd / Johnson Dr"}},{"type": "Feature", "geometry": { "type": "Point", "coordinates": [-118.597343,34.204664]}, "properties": { "type": 1, "address":"Valerio St / Canoga Ave"}},{"type": "Feature", "geometry": { "type": "Point", "coordinates": [-118.457443,34.180582]}, "properties": { "type": 1, "address":"Kester Ave / Bessemer St"}},{"type": "Feature", "geometry": { "type": "Point", "coordinates": [-118.552965,34.133493]}, "properties": { "type": 6, "address":""}},{"type": "Feature", "geometry": { "type": "Point", "coordinates": [-118.410668,34.119063]}, "properties": { "type": 6, "address":""}},{"type": "Feature", "geometry": { "type": "Point", "coordinates": [-118.409637,34.12273]}, "properties": { "type": 6, "address":""}},{"type": "Feature", "geometry": { "type": "Point", "coordinates": [-118.297696,34.018278]}, "properties": { "type": 1, "address":"Raymond Ave / Exposition Blvd"}},{"type": "Feature", "geometry": { "type": "Point", "coordinates": [-118.302888,34.018284]}, "properties": { "type": 1, "address":"S Halldale Ave / Exposition Blvd"}},{"type": "Feature", "geometry": { "type": "Point", "coordinates": [-118.187393,34.033311]}, "properties": { "type": 1, "address":"E 3rd St / S Rowan Ave"}},{"type": "Feature", "geometry": { "type": "Point", "coordinates": [-118.184616,34.033319]}, "properties": { "type": 1, "address":"S Gage Ave / E 3rd St"}},{"type": "Feature", "geometry": { "type": "Point", "coordinates": [-118.108215,34.010077]}, "properties": { "type": 1, "address":"Whittier Blvd / S Montebello Blvd"}},{"type": "Feature", "geometry": { "type": "Point", "coordinates": [-118.166957,34.033311]}, "properties": { "type": 1, "address":"E 3rd St / S McDonnell Ave"}},{"type": "Feature", "geometry": { "type": "Point", "coordinates": [-118.163764,34.033328]}, "properties": { "type": 1, "address":"S Arizona Ave / E 3rd St"}},{"type": "Feature", "geometry": { "type": "Point", "coordinates": [-118.160176,34.033387]}, "properties": { "type": 1, "address":"E 3rd St / S Fetterly Ave"}},{"type": "Feature", "geometry": { "type": "Point", "coordinates": [-118.158634,34.033407]}, "properties": { "type": 1, "address":"S la Verne Ave / Gratian St"}}]}