{ "type": "FeatureCollection", "features": [{"type": "Feature", "geometry": { "type": "Point", "coordinates": [-87.434024,36.629492]}, "properties": { "type": 1, "address":"Tiny Town Rd / Fort Campbell Blvd"}},{"type": "Feature", "geometry": { "type": "Point", "coordinates": [-87.336447,36.580785]}, "properties": { "type": 1, "address":"Whitfield Rd / 101st Airborne Division Pkwy"}},{"type": "Feature", "geometry": { "type": "Point", "coordinates": [-87.312539,36.563003]}, "properties": { "type": 1, "address":"Trenton Rd / Wilma Rudolph Blvd"}},{"type": "Feature", "geometry": { "type": "Point", "coordinates": [-86.458766,36.38323]}, "properties": { "type": 1, "address":"Nashville Pike / Maple St"}},{"type": "Feature", "geometry": { "type": "Point", "coordinates": [-86.439962,36.363575]}, "properties": { "type": 1, "address":"S Water Ave / Airport Rd"}},{"type": "Feature", "geometry": { "type": "Point", "coordinates": [-86.524649,36.346138]}, "properties": { "type": 1, "address":"Nashville Pike / Cages Bend Rd"}},{"type": "Feature", "geometry": { "type": "Point", "coordinates": [-86.476828,36.37405]}, "properties": { "type": 1, "address":"Nashville Pike / Belvedere Dr"}},{"type": "Feature", "geometry": { "type": "Point", "coordinates": [-87.281101,36.601207]}, "properties": { "type": 1, "address":"Guthrie Hwy / I- 24"}},{"type": "Feature", "geometry": { "type": "Point", "coordinates": [-87.324414,36.554082]}, "properties": { "type": 1, "address":"W Dunbar Cave Rd / Wilma Rudolph Blvd"}}]}