{ "type": "FeatureCollection", "features": [{"type": "Feature", "geometry": { "type": "Point", "coordinates": [-87.434024,36.629492]}, "properties": { "type": 1, "address":"Tiny Town Rd / Fort Campbell Blvd"}},{"type": "Feature", "geometry": { "type": "Point", "coordinates": [-87.336447,36.580785]}, "properties": { "type": 1, "address":"Whitfield Rd / 101st Airborne Division Pkwy"}},{"type": "Feature", "geometry": { "type": "Point", "coordinates": [-87.312539,36.563003]}, "properties": { "type": 1, "address":"Trenton Rd / Wilma Rudolph Blvd"}},{"type": "Feature", "geometry": { "type": "Point", "coordinates": [-86.458766,36.38323]}, "properties": { "type": 1, "address":"Nashville Pike / Maple St"}},{"type": "Feature", "geometry": { "type": "Point", "coordinates": [-86.439962,36.363575]}, "properties": { "type": 1, "address":"S Water Ave / Airport Rd"}},{"type": "Feature", "geometry": { "type": "Point", "coordinates": [-86.524649,36.346138]}, "properties": { "type": 1, "address":"Nashville Pike / Cages Bend Rd"}},{"type": "Feature", "geometry": { "type": "Point", "coordinates": [-86.430643,35.847195]}, "properties": { "type": 1, "address":"N Thompson Ln / Chaffin Pl"}},{"type": "Feature", "geometry": { "type": "Point", "coordinates": [-86.414852,35.869122]}, "properties": { "type": 1, "address":"Northfield Blvd / NW Broad St"}},{"type": "Feature", "geometry": { "type": "Point", "coordinates": [-86.394224,35.827593]}, "properties": { "type": 1, "address":"Middle Tennessee Blvd / S Church St"}},{"type": "Feature", "geometry": { "type": "Point", "coordinates": [-86.391986,35.842256]}, "properties": { "type": 1, "address":"S Church St / NW Broad St"}},{"type": "Feature", "geometry": { "type": "Point", "coordinates": [-86.387108,35.867928]}, "properties": { "type": 1, "address":"Memorial Blvd / E Northfield Blvd"}},{"type": "Feature", "geometry": { "type": "Point", "coordinates": [-86.476828,36.37405]}, "properties": { "type": 1, "address":"Nashville Pike / Belvedere Dr"}},{"type": "Feature", "geometry": { "type": "Point", "coordinates": [-86.350872,35.834816]}, "properties": { "type": 1, "address":"S Rutherford Blvd / Mercury Blvd"}},{"type": "Feature", "geometry": { "type": "Point", "coordinates": [-85.312537,35.046032]}, "properties": { "type": 1, "address":"Pine St / W 9th St"}},{"type": "Feature", "geometry": { "type": "Point", "coordinates": [-85.296153,35.064587]}, "properties": { "type": 4, "address":"Barton Ave"}},{"type": "Feature", "geometry": { "type": "Point", "coordinates": [-85.292116,35.039781]}, "properties": { "type": 1, "address":"Central Ave / E M L King Blvd"}},{"type": "Feature", "geometry": { "type": "Point", "coordinates": [-85.248726,35.141829]}, "properties": { "type": 1, "address":"Gadd Rd / State Rte 153"}},{"type": "Feature", "geometry": { "type": "Point", "coordinates": [-85.239498,35.123094]}, "properties": { "type": 1, "address":"State Rte 153 / Hamill Rd"}},{"type": "Feature", "geometry": { "type": "Point", "coordinates": [-85.228278,35.01296]}, "properties": { "type": 1, "address":"N Moore Rd / Club Dr"}},{"type": "Feature", "geometry": { "type": "Point", "coordinates": [-85.28286,35.038935]}, "properties": { "type": 1, "address":"S Holtzclaw Ave / McCallie Ave"}},{"type": "Feature", "geometry": { "type": "Point", "coordinates": [-85.250496,35.016737]}, "properties": { "type": 4, "address":"S Germantown Rd"}},{"type": "Feature", "geometry": { "type": "Point", "coordinates": [-85.279679,35.017948]}, "properties": { "type": 1, "address":"S Kelley St / E 23rd St"}},{"type": "Feature", "geometry": { "type": "Point", "coordinates": [-85.286747,35.090709]}, "properties": { "type": 4, "address":"Hixson Pike"}},{"type": "Feature", "geometry": { "type": "Point", "coordinates": [-85.280936,35.097463]}, "properties": { "type": 4, "address":"Hixson Pike"}},{"type": "Feature", "geometry": { "type": "Point", "coordinates": [-85.277849,35.100097]}, "properties": { "type": 4, "address":"Hixson Pike"}},{"type": "Feature", "geometry": { "type": "Point", "coordinates": [-85.282313,35.096278]}, "properties": { "type": 4, "address":"Hixson Pike"}},{"type": "Feature", "geometry": { "type": "Point", "coordinates": [-85.298327,35.063343]}, "properties": { "type": 4, "address":"Barton Ave"}},{"type": "Feature", "geometry": { "type": "Point", "coordinates": [-85.253607,35.136176]}, "properties": { "type": 4, "address":"Norcross Rd"}},{"type": "Feature", "geometry": { "type": "Point", "coordinates": [-87.281101,36.601207]}, "properties": { "type": 1, "address":"Guthrie Hwy / I- 24"}},{"type": "Feature", "geometry": { "type": "Point", "coordinates": [-87.324414,36.554082]}, "properties": { "type": 1, "address":"W Dunbar Cave Rd / Wilma Rudolph Blvd"}}]}