{ "type": "FeatureCollection", "features": [{"type": "Feature", "geometry": { "type": "Point", "coordinates": [-113.625952,53.643039]}, "properties": { "type": 1, "address":"St. Albert Trial / McKenney Avenue"}},{"type": "Feature", "geometry": { "type": "Point", "coordinates": [-113.615413,53.519554]}, "properties": { "type": 1, "address":"170 Street NW / 87 Avenue NW"}},{"type": "Feature", "geometry": { "type": "Point", "coordinates": [-113.614896,53.541163]}, "properties": { "type": 1, "address":"Stony Plain Road NW / 170 Street NW"}},{"type": "Feature", "geometry": { "type": "Point", "coordinates": [-113.541242,53.599488]}, "properties": { "type": 1, "address":"137 Avenue NW / 127 Street NW"}},{"type": "Feature", "geometry": { "type": "Point", "coordinates": [-113.505305,53.581379]}, "properties": { "type": 1, "address":"Yellowhead Trail / 107 Street NW"}},{"type": "Feature", "geometry": { "type": "Point", "coordinates": [-113.495728,53.467763]}, "properties": { "type": 1, "address":"Calgary Trail NW / 34 Avenue NW"}},{"type": "Feature", "geometry": { "type": "Point", "coordinates": [-113.49206,53.599521]}, "properties": { "type": 1, "address":"137 Avenue NW / 97 Street NW"}},{"type": "Feature", "geometry": { "type": "Point", "coordinates": [-113.466614,53.465372]}, "properties": { "type": 1, "address":"91 Street NW / 34 Avenue NW"}},{"type": "Feature", "geometry": { "type": "Point", "coordinates": [-113.295642,53.541179]}, "properties": { "type": 1, "address":"Sherwood Dr & Baseline Rd"}},{"type": "Feature", "geometry": { "type": "Point", "coordinates": [-113.413454,53.597058]}, "properties": { "type": 1, "address":"137 Avenue NW / 50 Street NW"}},{"type": "Feature", "geometry": { "type": "Point", "coordinates": [-113.630484,53.52131]}, "properties": { "type": 1, "address":"87 Avenue NW / 178 Street NW"}},{"type": "Feature", "geometry": { "type": "Point", "coordinates": [-113.467441,53.615958]}, "properties": { "type": 1, "address":"82 Street NW / 153 Avenue NW"}},{"type": "Feature", "geometry": { "type": "Point", "coordinates": [-113.420065,53.454794]}, "properties": { "type": 1, "address":"50 Street NW / 23 Avenue NW"}},{"type": "Feature", "geometry": { "type": "Point", "coordinates": [-113.541287,53.580674]}, "properties": { "type": 1, "address":"Yellowhead Trail / 127 Street NW"}},{"type": "Feature", "geometry": { "type": "Point", "coordinates": [-113.615277,53.531692]}, "properties": { "type": 1, "address":"170 Street NW / 95 Avenue NW"}},{"type": "Feature", "geometry": { "type": "Point", "coordinates": [-113.590347,53.541298]}, "properties": { "type": 1, "address":"Stony Plain Road / 156 Street NW"}},{"type": "Feature", "geometry": { "type": "Point", "coordinates": [-113.578024,53.581289]}, "properties": { "type": 1, "address":"Yellowhead Trail / 149 Street NW"}},{"type": "Feature", "geometry": { "type": "Point", "coordinates": [-113.616927,53.539293]}, "properties": { "type": 1, "address":"170 Street NW / 100 Avenue NW"}},{"type": "Feature", "geometry": { "type": "Point", "coordinates": [-113.508407,53.546219]}, "properties": { "type": 1, "address":"104 Avenue NW / 109 Street NW"}},{"type": "Feature", "geometry": { "type": "Point", "coordinates": [-113.629352,53.65395]}, "properties": { "type": 1, "address":"St Albert Trail / Giroux Road"}},{"type": "Feature", "geometry": { "type": "Point", "coordinates": [-113.421968,53.598999]}, "properties": { "type": 1, "address":"Fort Rd NW / 137 Ave NW"}},{"type": "Feature", "geometry": { "type": "Point", "coordinates": [-113.416403,53.601951]}, "properties": { "type": 1, "address":"Manning Dr NW / 50 St NW"}},{"type": "Feature", "geometry": { "type": "Point", "coordinates": [-113.491901,53.628852]}, "properties": { "type": 1, "address":"Castle Downs Rd NW / 97 St NW"}},{"type": "Feature", "geometry": { "type": "Point", "coordinates": [-113.516723,53.599553]}, "properties": { "type": 1, "address":"137 Ave NW / 113a St NW"}},{"type": "Feature", "geometry": { "type": "Point", "coordinates": [-113.609524,53.621458]}, "properties": { "type": 1, "address":"Gervais Rd / St Albert Trail"}},{"type": "Feature", "geometry": { "type": "Point", "coordinates": [-113.492115,53.576687]}, "properties": { "type": 1, "address":"122 Ave NW / 97 St NW"}},{"type": "Feature", "geometry": { "type": "Point", "coordinates": [-113.246662,53.541271]}, "properties": { "type": 1, "address":"Baseline Rd & HWY-21"}},{"type": "Feature", "geometry": { "type": "Point", "coordinates": [-113.270585,53.512133]}, "properties": { "type": 1, "address":"Clover Bar Rd & HWY-630"}},{"type": "Feature", "geometry": { "type": "Point", "coordinates": [-113.295581,53.512129]}, "properties": { "type": 1, "address":"HWY-630 & Wye Rd"}},{"type": "Feature", "geometry": { "type": "Point", "coordinates": [-113.320124,53.541236]}, "properties": { "type": 1, "address":"Broadmoor Blvd & HWY-16A"}},{"type": "Feature", "geometry": { "type": "Point", "coordinates": [-113.320175,53.512124]}, "properties": { "type": 1, "address":"HWY-630 & Sherwood Dr"}},{"type": "Feature", "geometry": { "type": "Point", "coordinates": [-113.33019,53.512137]}, "properties": { "type": 1, "address":"HWY-630 & Wye Rd"}},{"type": "Feature", "geometry": { "type": "Point", "coordinates": [-113.578105,53.558922]}, "properties": { "type": 1, "address":"111 Ave NW / 149 St NW"}},{"type": "Feature", "geometry": { "type": "Point", "coordinates": [-113.61692,53.541292]}, "properties": { "type": 1, "address":"170 St NW / Stony Plain Rd NW"}},{"type": "Feature", "geometry": { "type": "Point", "coordinates": [-113.614992,53.539291]}, "properties": { "type": 1, "address":"100 Ave NW / 170 St NW"}},{"type": "Feature", "geometry": { "type": "Point", "coordinates": [-113.479177,53.453022]}, "properties": { "type": 1, "address":"23 Ave NW / Parsons Rd NW"}},{"type": "Feature", "geometry": { "type": "Point", "coordinates": [-113.466589,53.451843]}, "properties": { "type": 1, "address":"23 Ave NW / 91 St NW"}}]}