{ "type": "FeatureCollection", "features": [{"type": "Feature", "geometry": { "type": "Point", "coordinates": [-119.018928,35.353975]}, "properties": { "type": 1, "address":"S Chester Ave / Brundage Ln"}},{"type": "Feature", "geometry": { "type": "Point", "coordinates": [-118.949759,35.392251]}, "properties": { "type": 1, "address":"Oswell St / Bernard St"}},{"type": "Feature", "geometry": { "type": "Point", "coordinates": [-119.091815,35.361964]}, "properties": { "type": 1, "address":"Coffee Rd / Truxtun Ave"}},{"type": "Feature", "geometry": { "type": "Point", "coordinates": [-119.061149,35.354219]}, "properties": { "type": 1, "address":"New Stine Rd / Stockdale Hwy"}},{"type": "Feature", "geometry": { "type": "Point", "coordinates": [-119.043412,35.339503]}, "properties": { "type": 1, "address":"Ming Ave / S Real Rd"}},{"type": "Feature", "geometry": { "type": "Point", "coordinates": [-119.038954,35.317724]}, "properties": { "type": 1, "address":"Wible Rd / White Ln"}},{"type": "Feature", "geometry": { "type": "Point", "coordinates": [-119.037144,35.339465]}, "properties": { "type": 1, "address":"Ming Ave / Valley Plz"}},{"type": "Feature", "geometry": { "type": "Point", "coordinates": [-119.038755,35.368617]}, "properties": { "type": 1, "address":"Oak St / California Ave"}}]}