{ "type": "FeatureCollection", "features": [{"type": "Feature", "geometry": { "type": "Point", "coordinates": [-112.556876,33.443011]}, "properties": { "name": "Buckeye, AZ", "dateOpened": "2014-03-20", "elevationMeters": "338", "locationId": "buckeyesupercharger", "stallCount": "8"}},{"type": "Feature", "geometry": { "type": "Point", "coordinates": [-112.733506,32.943969]}, "properties": { "name": "Gila Bend, AZ", "dateOpened": "2014-05-17", "elevationMeters": "221", "locationId": "gilabendsupercharger", "stallCount": "8"}},{"type": "Feature", "geometry": { "type": "Point", "coordinates": [-114.242174,33.661314]}, "properties": { "name": "Quartzsite, AZ", "dateOpened": "2013-11-14", "elevationMeters": "280", "locationId": "quartzsitesupercharger", "stallCount": "8"}},{"type": "Feature", "geometry": { "type": "Point", "coordinates": [-112.73165,33.9702333]}, "properties": { "name": "Wickenburg, AZ", "dateOpened": "2014-07-11", "elevationMeters": "628", "locationId": "wickenburgsupercharger", "stallCount": "6"}},{"type": "Feature", "geometry": { "type": "Point", "coordinates": [-112.118432,34.327131]}, "properties": { "name": "Cordes Lakes, AZ", "dateOpened": "2014-10-14", "elevationMeters": "1150", "locationId": "cordeslakessupercharger", "stallCount": "6"}}]}