{ "type": "FeatureCollection", "features": [{"type": "Feature", "geometry": { "type": "Point", "coordinates": [-73.008988,41.245814]}, "properties": { "name": "Milford, CT (north)", "dateOpened": "2012-12-16", "elevationMeters": "19", "locationId": "milfordnorthsupercharger", "stallCount": "2"}},{"type": "Feature", "geometry": { "type": "Point", "coordinates": [-73.010529,41.246232]}, "properties": { "name": "Milford, CT (south)", "dateOpened": "2012-12-16", "elevationMeters": "19", "locationId": "milfordsouthsupercharger", "stallCount": "2"}},{"type": "Feature", "geometry": { "type": "Point", "coordinates": [-73.461905,41.080599]}, "properties": { "name": "Darien, CT (north)", "dateOpened": "2013-06-19", "elevationMeters": "13", "locationId": "dariennorthsupercharger", "stallCount": "4"}},{"type": "Feature", "geometry": { "type": "Point", "coordinates": [-73.504659,41.068167]}, "properties": { "name": "Darien, CT (south)", "dateOpened": "2013-06-19", "elevationMeters": "14", "locationId": "dariensouthsupercharger", "stallCount": "4"}},{"type": "Feature", "geometry": { "type": "Point", "coordinates": [-73.671661,41.041538]}, "properties": { "name": "Greenwich, CT (north)", "dateOpened": "2014-02-12", "elevationMeters": "82", "locationId": "greenwichnorthsupercharger", "stallCount": "4"}},{"type": "Feature", "geometry": { "type": "Point", "coordinates": [-73.673445,41.040555]}, "properties": { "name": "Greenwich, CT (south)", "dateOpened": "2014-02-12", "elevationMeters": "81", "locationId": "greenwichsouthsupercharger", "stallCount": "4"}},{"type": "Feature", "geometry": { "type": "Point", "coordinates": [-74.333248,40.5448144]}, "properties": { "name": "Edison, NJ", "dateOpened": "2014-08-22", "elevationMeters": "30", "locationId": "edisonsupercharger", "stallCount": "8"}},{"type": "Feature", "geometry": { "type": "Point", "coordinates": [-74.641375,40.195539]}, "properties": { "name": "Hamilton Marketplace, NJ", "dateOpened": "2014-04-22", "elevationMeters": "21", "locationId": "hamiltontownshipsupercharger", "stallCount": "6"}},{"type": "Feature", "geometry": { "type": "Point", "coordinates": [-73.793192,40.66319]}, "properties": { "name": "JFK Airport, NY", "dateOpened": "2013-12-23", "elevationMeters": "3", "locationId": "jfksupercharger", "stallCount": "4"}},{"type": "Feature", "geometry": { "type": "Point", "coordinates": [-73.5152669,40.7998387]}, "properties": { "name": "Syosset, NY", "dateOpened": "2014-01-18", "elevationMeters": "56", "locationId": "syosset", "stallCount": "4"}},{"type": "Feature", "geometry": { "type": "Point", "coordinates": [-74.07408,40.957429]}, "properties": { "name": "Paramus, NJ", "dateOpened": "2014-11-26", "elevationMeters": "15", "locationId": "paramusroute17", "stallCount": "8"}},{"type": "Feature", "geometry": { "type": "Point", "coordinates": [-74.444085,40.41701]}, "properties": { "name": "East Brunswick, NJ", "dateOpened": "2015-06-19", "elevationMeters": "37", "locationId": "eastbrunswicksupercharger", "stallCount": "4"}},{"type": "Feature", "geometry": { "type": "Point", "coordinates": [-74.488254,40.321021]}, "properties": { "name": "Cranbury, NJ", "dateOpened": "2015-07-09", "elevationMeters": "36", "locationId": "cranburysupercharger", "stallCount": "4"}},{"type": "Feature", "geometry": { "type": "Point", "coordinates": [-74.093538,40.226272]}, "properties": { "name": "Tinton Falls, NJ", "dateOpened": "2015-09-19", "elevationMeters": "33", "locationId": "tintonfallssupercharger", "stallCount": "8"}}]}