{ "type": "FeatureCollection", "features": [{"type": "Feature", "geometry": { "type": "Point", "coordinates": [-121.266149,38.771208]}, "properties": { "name": "Roseville, CA", "dateOpened": "2014-04-29", "elevationMeters": "66", "locationId": "rosevillesupercharger", "stallCount": "7"}},{"type": "Feature", "geometry": { "type": "Point", "coordinates": [-121.18806,38.64258]}, "properties": { "name": "Folsom, CA", "dateOpened": "2013-11-19", "elevationMeters": "63", "locationId": "folsompremiumoutletssupercharger", "stallCount": "4"}},{"type": "Feature", "geometry": { "type": "Point", "coordinates": [-120.207373,39.327507]}, "properties": { "name": "Truckee, CA", "dateOpened": "2014-08-26", "elevationMeters": "1967", "locationId": "truckeesupercharger", "stallCount": "6"}},{"type": "Feature", "geometry": { "type": "Point", "coordinates": [-121.210485,38.800537]}, "properties": { "name": "Rocklin (SC), CA", "dateOpened": "2015-02-20", "elevationMeters": "98", "locationId": "rocklin", "stallCount": "8"}},{"type": "Feature", "geometry": { "type": "Point", "coordinates": [-119.547596,38.695341]}, "properties": { "name": "Gardnerville, NV", "dateOpened": "2015-10-22", "elevationMeters": "1579", "locationId": "gardnervillesupercharger", "stallCount": "6"}},{"type": "Feature", "geometry": { "type": "Point", "coordinates": [-120.1621,39.321865]}, "properties": { "name": "Truckee-Brockway Rd, CA", "dateOpened": "2015-10-23", "elevationMeters": "1801", "locationId": "truckeebrockwayroadsupercharger", "stallCount": "8"}},{"type": "Feature", "geometry": { "type": "Point", "coordinates": [-119.794179,39.489732]}, "properties": { "name": "Reno, NV", "dateOpened": "2016-05-05", "elevationMeters": "1356", "locationId": "renosupercharger", "stallCount": "6"}},{"type": "Feature", "geometry": { "type": "Point", "coordinates": [-121.118344,38.647199]}, "properties": { "name": "Folsom-Palladio, CA", "dateOpened": "2016-08-13", "elevationMeters": "116", "locationId": "palladiofolsomsupercharger", "stallCount": "10"}}]}