{ "type": "FeatureCollection", "features": [{"type": "Feature", "geometry": { "type": "Point", "coordinates": [-73.819109,42.710356]}, "properties": { "name": "Albany, NY", "dateOpened": "2014-04-30", "elevationMeters": "88", "locationId": "albanysupercharger", "stallCount": "6"}},{"type": "Feature", "geometry": { "type": "Point", "coordinates": [-72.565798,42.838443]}, "properties": { "name": "Brattleboro, VT", "dateOpened": "2015-01-16", "elevationMeters": "129", "locationId": "brattleborovtsupercharger", "stallCount": "8"}},{"type": "Feature", "geometry": { "type": "Point", "coordinates": [-73.180184,44.463327]}, "properties": { "name": "South Burlington, VT", "dateOpened": "2015-11-04", "elevationMeters": "94", "locationId": "southburlingtonsupercharger", "stallCount": "8"}},{"type": "Feature", "geometry": { "type": "Point", "coordinates": [-73.679992,43.328388]}, "properties": { "name": "Queensbury, NY", "dateOpened": "2016-07-15", "elevationMeters": "130", "locationId": "queensburysupercharger", "stallCount": "8"}},{"type": "Feature", "geometry": { "type": "Point", "coordinates": [-72.576462,44.212532]}, "properties": { "name": "Berlin, VT", "dateOpened": "2016-10-03", "elevationMeters": "299", "locationId": "berlinvtsupercharger", "stallCount": "8"}}]}