{ "type": "FeatureCollection", "features": [{"type": "Feature", "geometry": { "type": "Point", "coordinates": [-73.819109,42.710356]}, "properties": { "name": "Albany, NY", "dateOpened": "2014-04-30", "elevationMeters": "88", "locationId": "albanysupercharger", "stallCount": "6"}},{"type": "Feature", "geometry": { "type": "Point", "coordinates": [-72.759717,41.722672]}, "properties": { "name": "West Hartford, CT", "dateOpened": "2014-12-05", "elevationMeters": "52", "locationId": "westhartfordsupercharger", "stallCount": "8"}},{"type": "Feature", "geometry": { "type": "Point", "coordinates": [-72.621435,42.130914]}, "properties": { "name": "West Springfield, MA", "dateOpened": "2015-02-14", "elevationMeters": "17", "locationId": "westspringfieldsupercharger", "stallCount": "8"}},{"type": "Feature", "geometry": { "type": "Point", "coordinates": [-72.565798,42.838443]}, "properties": { "name": "Brattleboro, VT", "dateOpened": "2015-01-16", "elevationMeters": "129", "locationId": "brattleborovtsupercharger", "stallCount": "8"}},{"type": "Feature", "geometry": { "type": "Point", "coordinates": [-73.679992,43.328388]}, "properties": { "name": "Queensbury, NY", "dateOpened": "2016-07-15", "elevationMeters": "130", "locationId": "queensburysupercharger", "stallCount": "8"}},{"type": "Feature", "geometry": { "type": "Point", "coordinates": [-73.239245,42.29571]}, "properties": { "name": "Lee, MA", "dateOpened": "2016-08-20", "elevationMeters": "267", "locationId": "leemasupercharger", "stallCount": "8"}}]}