{ "type": "FeatureCollection", "features": [{"type": "Feature", "geometry": { "type": "Point", "coordinates": [-77.461419,37.669832]}, "properties": { "name": "Glen Allen, VA", "dateOpened": "2013-10-24", "elevationMeters": "49", "locationId": "glenallensupercharger", "stallCount": "8"}},{"type": "Feature", "geometry": { "type": "Point", "coordinates": [-77.29633,38.64082]}, "properties": { "name": "Woodbridge, VA", "dateOpened": "2014-05-02", "elevationMeters": "63", "locationId": "woodbridgesupercharger", "stallCount": "8"}},{"type": "Feature", "geometry": { "type": "Point", "coordinates": [-78.337836,39.00496]}, "properties": { "name": "Strasburg, VA", "dateOpened": "2015-09-02", "elevationMeters": "204", "locationId": "strasburgsupercharger", "stallCount": "6"}},{"type": "Feature", "geometry": { "type": "Point", "coordinates": [-76.858319,39.095382]}, "properties": { "name": "Laurel, MD", "dateOpened": "2016-09-23", "elevationMeters": "55", "locationId": "laurelsupercharger", "stallCount": "8"}},{"type": "Feature", "geometry": { "type": "Point", "coordinates": [-77.144352,39.023876]}, "properties": { "name": "Bethesda, MD", "dateOpened": "2014-01-29", "elevationMeters": "92", "locationId": "montgomerymall", "stallCount": "2"}}]}